$WIMWV,35.95,R,4.35,N,A*1B
$GPRMC,220058.5,A,4439.1514,N,06328.3343,W,0,,231224,16.33,W,A,V*47
$TIROT,-0.25,A*21
$IIVHW,,T,43,M,0,N,0,K*52
$WIVWR,36,R,4.4,N,2.2,M,8.1,K*75
$GPGGA,220058.5,4439.1514,N,06328.3343,W,1,17,1.2,34.3,M,-22.8,M,,*51
$GPGLL,4439.1514,N,06328.3343,W,220058.5,A,A*40
$GPGNS,220058.5,4439.1514,N,06328.3343,W,A,17,1.2,34.3,-22.8,,,V*40
$HCHDG,43,,,16.3,W*26
$HCHDM,43,M*00
$IIMDA,,I,,B,,C,26.4,C,,,,C,,T,,M,,N,,M*04
$WIMWV,35.95,R,4.35,N,A*1B
$GPRMC,220059.5,A,4439.1514,N,06328.3343,W,0,,231224,16.33,W,A,V*46
$TIROT,0.28,A*01
$IIVHW,,T,43,M,0,N,0,K*52
$WIVWR,36.3,R,4.3,N,2.2,M,8,K*70
$GPGGA,220059.5,4439.1514,N,06328.3343,W,1,17,1.2,34.33,M,-22.8,M,,*63
$GPGLL,4439.1514,N,06328.3343,W,220059.5,A,A*41
$GPGNS,220059.5,4439.1514,N,06328.3343,W,A,17,1.2,34.3,-22.8,,,V*41
$HCHDG,43,,,16.3,W*26
$HCHDM,43,M*00
$IIMDA,,I,,B,,C,26.4,C,,,,C,,T,,M,,N,,M*04
$WIMWV,36.28,R,4.32,N,A*19
$GPRMC,220059.5,A,4439.1514,N,06328.3343,W,0,,231224,16.33,W,A,V*46
$GPZDA,220059.5,23,12,2024,,*59
$SDDPT,,0,210*78
$GPGGA,220059.5,4439.1514,N,06328.3343,W,1,17,1.2,34.33,M,-22.8,M,,*63
$TIROT,0.66,A*0B
$IIVHW,,T,43,M,0,N,0,K*52
$WIVWR,36.3,R,4.3,N,2.2,M,8,K*70
$GPGLL,4439.1514,N,06328.3343,W,220059.5,A,A*41
$GPGNS,220059.5,4439.1514,N,06328.3343,W,A,17,1.2,34.3,-22.8,,,V*41
$HCHDG,43,,,16.3,W*26
$HCHDM,43,M*00
$IIMTW,26.37,C*23
$GPGSA,A,3,30,08,17,07,21,10,14,02,27,,,,1.9,1.2,1.4*36
$IIMDA,,I,,B,,C,26.4,C,,,,C,,T,,M,,N,,M*04
$WIMWV,36.61,R,4.3,N,A*26
$GPRMC,220059.5,A,4439.1514,N,06328.3343,W,0,,231224,16.33,W,A,V*46
$TIROT,-0.14,A*23
$GPGGA,220059.5,4439.1514,N,06328.3343,W,1,17,1.2,34.33,M,-22.8,M,,*63
$GPGLL,4439.1514,N,06328.3343,W,220059.5,A,A*41
$GPGNS,220059.5,4439.1514,N,06328.3343,W,A,17,1.2,34.3,-22.8,,,V*41
$IIVHW,,T,43,M,0,N,0,K*52
$WIVWR,36.6,R,4.3,N,2.2,M,8,K*75
$HCHDG,43,,,16.3,W*26
$HCHDM,43,M*00
$IIMDA,,I,,B,,C,26.4,C,,,,C,,T,,M,,N,,M*04
$WIMWV,36.61,R,4.3,N,A*26
$GPRMC,220059.5,A,4439.1514,N,06328.3343,W,0,,231224,16.33,W,A,V*46
$TIROT,1.49,A*07
$GPGGA,220059.5,4439.1514,N,06328.3343,W,1,17,1.2,34.33,M,-22.8,M,,*63
$GPGLL,4439.1514,N,06328.3343,W,220059.5,A,A*41
$GPGNS,220059.5,4439.1514,N,06328.3343,W,A,17,1.2,34.3,-22.8,,,V*41
$IIVHW,,T,43,M,0,N,0,K*52
$WIVWR,36.9,R,4.3,N,2.2,M,8,K*7A
$HCHDG,43,,,16.3,W*26
$HCHDM,43,M*00
$IIMDA,,I,,B,,C,26.4,C,,,,C,,T,,M,,N,,M*04
$WIMWV,36.9,R,4.32,N,A*2A
$GPRMC,220059.5,A,4439.1514,N,06328.3343,W,0,,231224,16.33,W,A,V*46
$TIROT,-0.1,A*17
$GPGGA,220059.5,4439.1514,N,06328.3343,W,1,17,1.2,34.33,M,-22.8,M,,*63
$GPGLL,4439.1514,N,06328.3343,W,220059.5,A,A*41
$GPGNS,220059.5,4439.1514,N,06328.3343,W,A,17,1.2,34.3,-22.8,,,V*41
$IIVHW,,T,43,M,0,N,0,K*52
$WIVWR,36.9,R,4.3,N,2.2,M,8,K*7A
$HCHDG,43,,,16.3,W*26
$HCHDM,43,M*00
$IIMDA,,I,,B,,C,26.4,C,,,,C,,T,,M,,N,,M*04
$WIMWV,36.9,R,4.32,N,A*2A
$GPGGA,220059.5,4439.1514,N,06328.3343,W,1,17,1.2,34.33,M,-22.8,M,,*63
$GPRMC,220059.5,A,4439.1514,N,06328.3343,W,0,,231224,16.33,W,A,V*46
$TIROT,0.69,A*04
$GPGLL,4439.1514,N,06328.3343,W,220059.5,A,A*41
$GPGNS,220059.5,4439.1514,N,06328.3343,W,A,17,1.2,34.3,-22.8,,,V*41
$GPGSV,3,1,12,30,51,255,34,08,41,063,43,17,23,255,24,07,41,203,26*71
$GPGSV,3,2,12,21,64,084,36,10,11,042,35,14,42,304,37,02,69,144,24*78
$GPGSV,3,3,12,27,08,069,33,13,10,302,00,74,76,328,00,84,72,213,00*78
$IIVHW,,T,43,M,0,N,0,K*52
$WIVWR,37.2,R,4.3,N,2.2,M,8,K*70
$HCHDG,43,,,16.3,W*26
$HCHDM,43,M*00
$IIMDA,,I,,B,,C,26.4,C,,,,C,,T,,M,,N,,M*04
$WIMWV,37.24,R,4.33,N,A*15
$IIVLW,367.99,N,367.99,N,,N,,N*4D
$GPGGA,220059.5,4439.1514,N,06328.3343,W,1,17,1.2,34.33,M,-22.8,M,,*63
$IIMTW,26.36,C*22
$GPRMC,220059.5,A,4439.1514,N,06328.3343,W,0,,231224,16.33,W,A,V*46
$TIROT,0.87,A*04
$GPGLL,4439.1514,N,06328.3343,W,220059.5,A,A*41
$GPGNS,220059.5,4439.1514,N,06328.3343,W,A,17,1.2,34.3,-22.8,,,V*41
$IIVHW,,T,43,M,0,N,0,K*52
$WIVWR,37.2,R,4.3,N,2.2,M,8,K*70
$HCHDG,43,,,16.3,W*26
$HCHDM,43,M*00
$IIMDA,,I,,B,,C,26.4,C,,,,C,,T,,M,,N,,M*04
$WIMWV,37.24,R,4.33,N,A*15
$GPGGA,220059.5,4439.1514,N,06328.3343,W,1,17,1.2,34.33,M,-22.8,M,,*63
$GPRMC,220059.5,A,4439.1514,N,06328.3343,W,0,,231224,16.33,W,A,V*46
$TIROT,-0.91,A*2E
$GPVTG,,T,43,M,0,N,0,K,A*24
$GPGLL,4439.1514,N,06328.3343,W,220059.5,A,A*41
$GPGNS,220059.5,4439.1514,N,06328.3343,W,A,17,1.2,34.3,-22.8,,,V*41
$IIVHW,,T,43,M,0,N,0,K*52
$WIVWR,37.6,R,4.4,N,2.3,M,8.2,K*6E
$HCHDG,43,,,16.3,W*26
$HCHDM,43,M*00
$IIMDA,,I,,B,,C,26.4,C,,,,C,,T,,M,,N,,M*04
$WIMWV,37.63,R,4.41,N,A*13
$GPGGA,220059.5,4439.1514,N,06328.3343,W,1,17,1.2,34.33,M,-22.8,M,,*63
$GPRMC,220059.5,A,4439.1514,N,06328.3343,W,0,,231224,16.33,W,A,V*46
$TIROT,0.69,A*04
$GPGLL,4439.1514,N,06328.3343,W,220100.5,A,A*4C
$GPGNS,220100.5,4439.1514,N,06328.3343,W,A,17,1.2,34.4,-22.8,,,V*4B
$HCHDG,43,,,16.3,W*26
$HCHDM,43,M*00
$IIMDA,,I,,B,,C,26.4,C,,,,C,,T,,M,,N,,M*04
$WIMWV,38.07,R,4.47,N,A*18
$IIVHW,,T,43,M,0,N,0,K*52
$WIVWR,38.1,R,4.5,N,2.3,M,8.3,K*66
$GPGGA,220100.5,4439.1514,N,06328.3343,W,1,17,1.2,34.37,M,-22.8,M,,*6A
$GPRMC,220100.5,A,4439.1514,N,06328.3343,W,0,,231224,16.33,W,A,V*4B
$TIROT,-0.57,A*24
$GPGLL,4439.1514,N,06328.3343,W,220100.5,A,A*4C
$GPGNS,220100.5,4439.1514,N,06328.3343,W,A,17,1.2,34.4,-22.8,,,V*4B
$HCHDG,43,,,16.3,W*26
$HCHDM,43,M*00
$IIMDA,,I,,B,,C,26.4,C,,,,C,,T,,M,,N,,M*04
$WIMWV,38.07,R,4.47,N,A*18
$IIVHW,,T,43,M,0,N,0,K*52
$WIVWR,38.1,R,4.5,N,2.3,M,8.3,K*66
$GPZDA,220100.5,23,12,2024,,*54
$SDDPT,,0,210*78
$GPGGA,220100.5,4439.1514,N,06328.3343,W,1,17,1.2,34.37,M,-22.8,M,,*6A
$GPRMC,220100.5,A,4439.1514,N,06328.3343,W,0,,231224,16.33,W,A,V*4B
$TIROT,0.81,A*02
$GPGLL,4439.1514,N,06328.3343,W,220100.5,A,A*4C
$GPGNS,220100.5,4439.1514,N,06328.3343,W,A,17,1.2,34.4,-22.8,,,V*4B
$HCHDG,43,,,16.3,W*26
$HCHDM,43,M*00
$IIMTW,26.36,C*22
$GPGSA,A,3,30,08,17,07,21,10,14,27,,,,,1.9,1.2,1.4*34
$IIMDA,,I,,B,,C,26.4,C,,,,C,,T,,M,,N,,M*04
$WIMWV,38.55,R,4.55,N,A*1C
$GPRMC,220100.5,A,4439.1514,N,06328.3343,W,0,,231224,16.33,W,A,V*4B
$IIVHW,,T,43,M,0,N,0,K*52
$WIVWR,38.5,R,4.6,N,2.3,M,8.4,K*66
$GPGGA,220100.5,4439.1514,N,06328.3343,W,1,17,1.2,34.37,M,-22.8,M,,*6A
$TIROT,1.08,A*02
$GPGLL,4439.1514,N,06328.3343,W,220100.5,A,A*4C
$GPGNS,220100.5,4439.1514,N,06328.3343,W,A,17,1.2,34.4,-22.8,,,V*4B
$HCHDG,43,,,16.3,W*26
$HCHDM,43,M*00
$IIMDA,,I,,B,,C,26.4,C,,,,C,,T,,M,,N,,M*04
$WIMWV,38.55,R,4.55,N,A*1C
$GPRMC,220100.5,A,4439.1514,N,06328.3343,W,0,,231224,16.33,W,A,V*4B
$IIVHW,,T,43,M,0,N,0,K*52
$WIVWR,38.5,R,4.6,N,2.3,M,8.4,K*66
$GPGGA,220100.5,4439.1514,N,06328.3343,W,1,17,1.2,34.37,M,-22.8,M,,*6A
$GPGLL,4439.1514,N,06328.3343,W,220100.5,A,A*4C
$GPGNS,220100.5,4439.1514,N,06328.3343,W,A,17,1.2,34.4,-22.8,,,V*4B
$TIROT,0.48,A*07
$HCHDG,43,,,16.3,W*26
$HCHDM,43,M*00
$IIMDA,,I,,B,,C,26.4,C,,,,C,,T,,M,,N,,M*04
$WIMWV,39.08,R,4.65,N,A*16
$GPRMC,220100.5,A,4439.1514,N,06328.3343,W,0,,231224,16.33,W,A,V*4B
$IIVHW,,T,43,M,0,N,0,K*52
$WIVWR,39.1,R,4.7,N,2.4,M,8.6,K*67
$GPGGA,220100.5,4439.1514,N,06328.3343,W,1,17,1.2,34.37,M,-22.8,M,,*6A
$GPGLL,4439.1514,N,06328.3343,W,220100.5,A,A*4C
$GPGNS,220100.5,4439.1514,N,06328.3343,W,A,17,1.2,34.4,-22.8,,,V*4B
$TIROT,0.2,A*39
$HCHDG,43,,,16.3,W*26
$HCHDM,43,M*00
$IIMDA,,I,,B,,C,26.4,C,,,,C,,T,,M,,N,,M*04
$WIMWV,39.08,R,4.65,N,A*16
$GPRMC,220100.5,A,4439.1514,N,06328.3343,W,0,,231224,16.33,W,A,V*4B
$IIVHW,,T,43,M,0,N,0,K*52
$WIVWR,39.1,R,4.7,N,2.4,M,8.6,K*67
$GPGGA,220100.5,4439.1514,N,06328.3343,W,1,17,1.2,34.37,M,-22.8,M,,*6A
$GPGLL,4439.1514,N,06328.3343,W,220100.5,A,A*4C
$GPGNS,220100.5,4439.1514,N,06328.3343,W,A,17,1.2,34.4,-22.8,,,V*4B
$GPGSV,3,1,12,30,51,255,34,08,41,063,43,17,23,255,24,07,41,203,26*71
$GPGSV,3,2,12,21,64,084,36,10,11,042,35,14,42,304,37,02,69,144,24*78
$GPGSV,3,3,12,27,08,069,33,13,10,302,00,74,76,328,00,84,72,213,00*78
$TIROT,0.36,A*0E
$HCHDG,43,,,16.3,W*26
$HCHDM,43,M*00
$IIVLW,367.99,N,367.99,N,,N,,N*4D
$IIMDA,,I,,B,,C,26.4,C,,,,C,,T,,M,,N,,M*04
$WIMWV,39.58,R,4.74,N,A*13
$GPRMC,220100.5,A,4439.1514,N,06328.3343,W,0,,231224,16.33,W,A,V*4B
$IIVHW,,T,43,M,0,N,0,K*52
$WIVWR,39.6,R,4.7,N,2.4,M,8.8,K*6E
$GPGGA,220100.5,4439.1514,N,06328.3343,W,1,17,1.2,34.37,M,-22.8,M,,*6A
$GPGLL,4439.1514,N,06328.3343,W,220100.5,A,A*4C
$GPGNS,220100.5,4439.1514,N,06328.3343,W,A,17,1.2,34.4,-22.8,,,V*4B
$IIMTW,26.36,C*22
$TIROT,1.46,A*08
$HCHDG,43,,,16.3,W*26
$HCHDM,43,M*00
$IIMDA,,I,,B,,C,26.4,C,,,,C,,T,,M,,N,,M*04
$WIMWV,39.58,R,4.74,N,A*13
$GPRMC,220100.5,A,4439.1514,N,06328.3343,W,0,,231224,16.33,W,A,V*4B
$IIVHW,,T,43,M,0,N,0,K*52
$WIVWR,39.6,R,4.7,N,2.4,M,8.8,K*6E
$GPGGA,220100.5,4439.1514,N,06328.3343,W,1,17,1.2,34.37,M,-22.8,M,,*6A
$GPGLL,4439.1514,N,06328.3343,W,220100.5,A,A*4C
$GPGNS,220100.5,4439.1514,N,06328.3343,W,A,17,1.2,34.4,-22.8,,,V*4B
$GPVTG,,T,43.01,M,0,N,0,K,A*0B
$TIROT,-0.08,A*2E
$HCHDG,43,,,16.3,W*26
$HCHDM,43,M*00
$GPRMC,220100.5,A,4439.1514,N,06328.3343,W,0,,231224,16.33,W,A,V*4B
$IIMDA,,I,,B,,C,26.4,C,,,,C,,T,,M,,N,,M*04
$WIMWV,40.03,R,4.86,N,A*1E
$IIVHW,,T,43,M,0,N,0,K*52
$WIVWR,40,R,4.9,N,2.5,M,9,K*60
$GPGGA,220101.5,4439.1514,N,06328.3343,W,1,17,1.2,34.4,M,-22.8,M,,*5B
$GPGLL,4439.1514,N,06328.3343,W,220101.5,A,A*4D
$GPGNS,220101.5,4439.1514,N,06328.3343,W,A,17,1.2,34.4,-22.8,,,V*4A
$TIROT,0.07,A*0C
$HCHDG,43,,,16.3,W*26
$HCHDM,43,M*00
$IIMDA,,I,,B,,C,26.4,C,,,,C,,T,,M,,N,,M*04
$GPRMC,220101.5,A,4439.1514,N,06328.3343,W,0,,231224,16.33,W,A,V*4A
$IIVHW,,T,43,M,0,N,0,K*52
$WIMWV,40.44,R,4.94,N,A*1E
$WIVWR,40.4,R,4.9,N,2.5,M,9.1,K*65
$GPGGA,220101.5,4439.1514,N,06328.3343,W,1,17,1.2,34.4,M,-22.8,M,,*5B
$GPGLL,4439.1514,N,06328.3343,W,220101.5,A,A*4D
$GPGNS,220101.5,4439.1514,N,06328.3343,W,A,17,1.2,34.4,-22.8,,,V*4A
$TIROT,-0.63,A*23
$HCHDG,43,,,16.3,W*26
$HCHDM,43,M*00
$IIMDA,,I,,B,,C,26.4,C,,,,C,,T,,M,,N,,M*04
$GPRMC,220101.5,A,4439.1514,N,06328.3343,W,0,,231224,16.33,W,A,V*4A
$IIVHW,,T,43,M,0,N,0,K*52
$GPZDA,220101.5,23,12,2024,,*55
$SDDPT,,0,210*78
$WIMWV,40.44,R,4.94,N,A*1E
$WIVWR,40.4,R,4.9,N,2.5,M,9.1,K*65
$GPGGA,220101.5,4439.1514,N,06328.3343,W,1,17,1.2,34.4,M,-22.8,M,,*5B
$GPGLL,4439.1514,N,06328.3343,W,220101.5,A,A*4D
$GPGNS,220101.5,4439.1514,N,06328.3343,W,A,17,1.2,34.4,-22.8,,,V*4A
$TIROT,0.12,A*08
$GPGSA,A,3,30,08,17,07,21,10,14,27,,,,,1.9,1.2,1.4*34
$HCHDG,43,,,16.3,W*26
$HCHDM,43,M*00
$IIMDA,,I,,B,,C,26.4,C,,,,C,,T,,M,,N,,M*04
$IIMTW,26.36,C*22
$GPRMC,220101.5,A,4439.1514,N,06328.3343,W,0,,231224,16.33,W,A,V*4A
$IIVHW,,T,43,M,0,N,0,K*52
$WIMWV,40.75,R,4.98,N,A*10
$WIVWR,40.8,R,5,N,2.6,M,9.2,K*7F
$GPGGA,220101.5,4439.1514,N,06328.3343,W,1,17,1.2,34.4,M,-22.8,M,,*5B
$GPGLL,4439.1514,N,06328.3343,W,220101.5,A,A*4D
$GPGNS,220101.5,4439.1514,N,06328.3343,W,A,17,1.2,34.4,-22.8,,,V*4A
$TIROT,-0.6,A*10
$HCHDG,43,,,16.3,W*26
$HCHDM,43,M*00
$IIMDA,,I,,B,,C,26.4,C,,,,C,,T,,M,,N,,M*04
$GPRMC,220101.5,A,4439.1514,N,06328.3343,W,0,,231224,16.33,W,A,V*4A
$IIVHW,,T,43,M,0,N,0,K*52
$WIMWV,40.75,R,4.98,N,A*10
$WIVWR,40.8,R,5,N,2.6,M,9.2,K*7F
$GPGGA,220101.5,4439.1514,N,06328.3343,W,1,17,1.2,34.4,M,-22.8,M,,*5B
$GPGLL,4439.1514,N,06328.3343,W,220101.5,A,A*4D
$GPGNS,220101.5,4439.1514,N,06328.3343,W,A,17,1.2,34.4,-22.8,,,V*4A
$TIROT,-0.37,A*22
$HCHDG,43,,,16.3,W*26
$HCHDM,43,M*00
$IIMDA,,I,,B,,C,26.4,C,,,,C,,T,,M,,N,,M*04
$GPRMC,220101.5,A,4439.1514,N,06328.3343,W,0,,231224,16.33,W,A,V*4A
$IIVHW,,T,43,M,0,N,0,K*52
$WIMWV,41.03,R,5,N,A*3E
$WIVWR,41,R,5,N,2.6,M,9.3,K*69
$GPGGA,220101.5,4439.1514,N,06328.3343,W,1,17,1.2,34.4,M,-22.8,M,,*5B
$GPGLL,4439.1514,N,06328.3343,W,220101.5,A,A*4D
$GPGNS,220101.5,4439.1514,N,06328.3343,W,A,17,1.2,34.4,-22.8,,,V*4A
$TIROT,-1.11,A*27
$HCHDG,43,,,16.3,W*26
$HCHDM,43,M*00
$IIMDA,,I,,B,,C,26.4,C,,,,C,,T,,M,,N,,M*04
$GPRMC,220101.5,A,4439.1514,N,06328.3343,W,0,,231224,16.33,W,A,V*4A
$IIVHW,,T,43,M,0,N,0,K*52
$GPGSV,3,1,12,30,51,255,34,08,41,063,43,17,23,255,24,07,41,203,25*72
$GPGSV,3,2,12,21,64,084,36,10,11,042,35,14,42,304,37,02,69,144,24*78
$GPGSV,3,3,12,27,08,069,33,13,10,302,00,74,76,328,00,84,72,213,00*78
$WIMWV,41.18,R,5.02,N,A*18
$WIVWR,41.2,R,5,N,2.6,M,9.3,K*75
$GPGGA,220101.5,4439.1514,N,06328.3343,W,1,17,1.2,34.4,M,-22.8,M,,*5B
$GPGLL,4439.1514,N,06328.3343,W,220101.5,A,A*4D
$GPGNS,220101.5,4439.1514,N,06328.3343,W,A,17,1.2,34.4,-22.8,,,V*4A
$HCHDG,43,,,16.3,W*26
$TIROT,-0.07,A*21
$IIVLW,367.99,N,367.99,N,,N,,N*4D
$HCHDM,43,M*00
$IIMDA,,I,,B,,C,26.4,C,,,,C,,T,,M,,N,,M*04
$GPRMC,220101.5,A,4439.1514,N,06328.3343,W,0,,231224,16.33,W,A,V*4A
$IIVHW,,T,43,M,0,N,0,K*52
$WIMWV,41.18,R,5.02,N,A*18
$IIMTW,26.36,C*22
$WIVWR,41.2,R,5,N,2.6,M,9.3,K*75
$GPGGA,220101.5,4439.1514,N,06328.3343,W,1,17,1.2,34.4,M,-22.8,M,,*5B
$GPGLL,4439.1514,N,06328.3343,W,220101.5,A,A*4D
$GPGNS,220101.5,4439.1514,N,06328.3343,W,A,17,1.2,34.4,-22.8,,,V*4A
$HCHDG,43,,,16.3,W*26
$TIROT,-0.3,A*15
$HCHDM,43,M*00
$IIMDA,,I,,B,,C,26.4,C,,,,C,,T,,M,,N,,M*04
$GPRMC,220101.5,A,4439.1514,N,06328.3343,W,0,,231224,16.33,W,A,V*4A
$IIVHW,,T,43,M,0,N,0,K*52
$GPVTG,,T,43.01,M,0,N,0,K,A*0B
$WIMWV,41.3,R,5.05,N,A*25
$WIVWR,41.3,R,5.1,N,2.6,M,9.4,K*6C
$GPGGA,220101.5,4439.1514,N,06328.3343,W,1,17,1.2,34.4,M,-22.8,M,,*5B
$GPGLL,4439.1514,N,06328.3343,W,220101.5,A,A*4D
$GPGNS,220101.5,4439.1514,N,06328.3343,W,A,17,1.2,34.4,-22.8,,,V*4A
$HCHDG,43,,,16.3,W*26
$IIMDA,,I,,B,,C,26.4,C,,,,C,,T,,M,,N,,M*04
$GPRMC,220102.5,A,4439.1514,N,06328.3343,W,0,,231224,16.33,W,A,V*49
$TIROT,0.26,A*0F
$IIVHW,,T,43,M,0,N,0,K*52
$WIVWR,41.3,R,5.1,N,2.6,M,9.4,K*6C
$GPGGA,220102.5,4439.1514,N,06328.3343,W,1,17,1.2,34.43,M,-22.8,M,,*6B
$GPGLL,4439.1514,N,06328.3343,W,220102.5,A,A*4E
$GPGNS,220102.5,4439.1514,N,06328.3343,W,A,17,1.2,34.4,-22.8,,,V*49
$HCHDG,43,,,16.3,W*26
$HCHDM,43,M*00
$WIMWV,41.3,R,5.05,N,A*25
$IIMDA,,I,,B,,C,26.4,C,,,,C,,T,,M,,N,,M*04
$GPRMC,220102.5,A,4439.1514,N,06328.3343,W,0,,231224,16.33,W,A,V*49
$TIROT,1.52,A*0D
$IIVHW,,T,43,M,0,N,0,K*52
$WIVWR,41.4,R,5,N,2.6,M,9.3,K*73
$GPGGA,220102.5,4439.1514,N,06328.3343,W,1,17,1.2,34.43,M,-22.8,M,,*6B
$GPGLL,4439.1514,N,06328.3343,W,220102.5,A,A*4E
$GPGNS,220102.5,4439.1514,N,06328.3343,W,A,17,1.2,34.4,-22.8,,,V*49
$HCHDG,43,,,16.3,W*26
$HCHDM,43,M*00
$WIMWV,41.41,R,5.03,N,A*15
$IIMDA,,I,,B,,C,26.4,C,,,,C,,T,,M,,N,,M*04
$GPZDA,220102.5,23,12,2024,,*56
$SDDPT,,0,210*78
$GPRMC,220102.5,A,4439.1514,N,06328.3343,W,0,,231224,16.33,W,A,V*49
$TIROT,-0.76,A*27
$IIVHW,,T,43,M,0,N,0,K*52
$WIVWR,41.4,R,5,N,2.6,M,9.3,K*73
$GPGGA,220102.5,4439.1514,N,06328.3343,W,1,17,1.2,34.43,M,-22.8,M,,*6B
$GPGLL,4439.1514,N,06328.3343,W,220102.5,A,A*4E
$GPGNS,220102.5,4439.1514,N,06328.3343,W,A,17,1.2,34.4,-22.8,,,V*49
$GPGSA,A,3,30,08,17,07,21,10,14,02,27,,,,1.9,1.2,1.4*36
$HCHDG,43,,,16.3,W*26
$HCHDM,43,M*00
$IIMDA,,I,,B,,C,26.4,C,,,,C,,T,,M,,N,,M*04
$WIMWV,41.41,R,5.03,N,A*15
$IIMTW,26.36,C*22
$GPRMC,220102.5,A,4439.1514,N,06328.3343,W,0,,231224,16.33,W,A,V*49
$TIROT,1.09,A*03
$IIVHW,,T,43,M,0,N,0,K*52
$WIVWR,41.5,R,5.1,N,2.6,M,9.4,K*6A
$GPGGA,220102.5,4439.1514,N,06328.3343,W,1,17,1.2,34.43,M,-22.8,M,,*6B
$GPGLL,4439.1514,N,06328.3343,W,220102.5,A,A*4E
$GPGNS,220102.5,4439.1514,N,06328.3343,W,A,17,1.2,34.4,-22.8,,,V*49
$HCHDG,43,,,16.3,W*26
$HCHDM,43,M*00
$IIMDA,,I,,B,,C,26.4,C,,,,C,,T,,M,,N,,M*04
$WIMWV,41.49,R,5.05,N,A*1B
$GPRMC,220102.5,A,4439.1514,N,06328.3343,W,0,,231224,16.33,W,A,V*49
$TIROT,-1.47,A*24
$IIVHW,,T,43,M,0,N,0,K*52
$WIVWR,41.5,R,5.1,N,2.6,M,9.4,K*6A
$GPGGA,220102.5,4439.1514,N,06328.3343,W,1,17,1.2,34.43,M,-22.8,M,,*6B
$GPGLL,4439.1514,N,06328.3343,W,220102.5,A,A*4E
$GPGNS,220102.5,4439.1514,N,06328.3343,W,A,17,1.2,34.4,-22.8,,,V*49
$HCHDG,43,,,16.3,W*26
$HCHDM,43,M*00
$IIMDA,,I,,B,,C,26.4,C,,,,C,,T,,M,,N,,M*04
$WIMWV,41.52,R,5.05,N,A*11
$GPRMC,220102.5,A,4439.1514,N,06328.3343,W,0,,231224,16.33,W,A,V*49
$TIROT,-0.8,A*1E
$IIVHW,,T,43,M,0,N,0,K*52
$WIVWR,41.5,R,5.1,N,2.6,M,9.4,K*6A
$GPGGA,220102.5,4439.1514,N,06328.3343,W,1,17,1.2,34.43,M,-22.8,M,,*6B
$GPGLL,4439.1514,N,06328.3343,W,220102.5,A,A*4E
$GPGNS,220102.5,4439.1514,N,06328.3343,W,A,17,1.2,34.4,-22.8,,,V*49
$HCHDG,43,,,16.3,W*26
$HCHDM,43,M*00
$IIMDA,,I,,B,,C,26.4,C,,,,C,,T,,M,,N,,M*04
$WIMWV,41.52,R,5.05,N,A*11
$GPRMC,220102.5,A,4439.1514,N,06328.3343,W,0,,231224,16.33,W,A,V*49
$TIROT,0.4,A*3F
$IIVHW,,T,43,M,0,N,0,K*52
$WIVWR,41.5,R,5.1,N,2.6,M,9.4,K*6A
$GPGSV,3,1,12,30,51,255,33,08,41,063,43,17,23,255,24,07,41,203,25*75
$GPGSV,3,2,12,21,64,084,36,10,11,042,35,14,42,304,37,02,69,144,24*78
$GPGSV,3,3,12,27,08,069,33,13,10,302,00,74,76,328,00,84,72,213,00*78
$GPGGA,220102.5,4439.1514,N,06328.3343,W,1,17,1.2,34.43,M,-22.8,M,,*6B
$GPGLL,4439.1514,N,06328.3343,W,220102.5,A,A*4E
$GPGNS,220102.5,4439.1514,N,06328.3343,W,A,17,1.2,34.4,-22.8,,,V*49
$HCHDG,43,,,16.3,W*26
$HCHDM,43,M*00
$IIMDA,,I,,B,,C,26.4,C,,,,C,,T,,M,,N,,M*04
$WIMWV,41.49,R,5.07,N,A*19
$IIVLW,367.99,N,367.99,N,,N,,N*4D
$GPRMC,220102.5,A,4439.1514,N,06328.3343,W,0,,231224,16.33,W,A,V*49
$TIROT,0.56,A*08
$IIVHW,,T,43,M,0,N,0,K*52
$WIVWR,41.5,R,5.1,N,2.6,M,9.4,K*6A
$GPGGA,220102.5,4439.1514,N,06328.3343,W,1,17,1.2,34.43,M,-22.8,M,,*6B
$IIMTW,26.36,C*22
$GPGLL,4439.1514,N,06328.3343,W,220102.5,A,A*4E
$GPGNS,220102.5,4439.1514,N,06328.3343,W,A,17,1.2,34.4,-22.8,,,V*49
$HCHDG,43,,,16.3,W*26
$HCHDM,43,M*00
$IIMDA,,I,,B,,C,26.4,C,,,,C,,T,,M,,N,,M*04
$WIMWV,41.49,R,5.07,N,A*19
$GPVTG,,T,43.01,M,0,N,0,K,A*0B
$GPRMC,220102.5,A,4439.1514,N,06328.3343,W,0,,231224,16.33,W,A,V*49
$TIROT,0.23,A*0A
$IIVHW,,T,43,M,0,N,0,K*52
$WIVWR,41.5,R,5.1,N,2.6,M,9.4,K*6A
$GPGGA,220102.5,4439.1514,N,06328.3343,W,1,17,1.2,34.43,M,-22.8,M,,*6B
$GPGLL,4439.1514,N,06328.3343,W,220102.5,A,A*4E
$GPGNS,220103.5,4439.1514,N,06328.3343,W,A,17,1.2,34.5,-22.8,,,V*49
$HCHDG,43,,,16.3,W*26
$HCHDM,43,M*00
$IIMDA,,I,,B,,C,26.4,C,,,,C,,T,,M,,N,,M*04
$WIMWV,41.45,R,5.11,N,A*12
$GPRMC,220103.5,A,4439.1514,N,06328.3343,W,0,,231224,16.33,W,A,V*48
$TIROT,-1.98,A*26
$IIVHW,,T,43,M,0,N,0,K*52
$WIVWR,41.4,R,5.1,N,2.6,M,9.5,K*6A
$GPGGA,220103.5,4439.1514,N,06328.3343,W,1,17,1.2,34.47,M,-22.8,M,,*6E
$GPGLL,4439.1514,N,06328.3343,W,220103.5,A,A*4F
$GPGNS,220103.5,4439.1514,N,06328.3343,W,A,17,1.2,34.5,-22.8,,,V*49
$HCHDG,43,,,16.3,W*26
$HCHDM,43,M*00
$IIMDA,,I,,B,,C,26.4,C,,,,C,,T,,M,,N,,M*04
$WIMWV,41.45,R,5.11,N,A*12
$GPRMC,220103.5,A,4439.1514,N,06328.3343,W,0,,231224,16.33,W,A,V*48
$TIROT,-0.39,A*2C
$IIVHW,,T,43,M,0,N,0,K*52
$WIVWR,41.3,R,5.2,N,2.7,M,9.5,K*6F
$GPGGA,220103.5,4439.1514,N,06328.3343,W,1,17,1.2,34.47,M,-22.8,M,,*6E
$GPGLL,4439.1514,N,06328.3343,W,220103.5,A,A*4F
$GPZDA,220103.5,23,12,2024,,*57
$SDDPT,,0,210*78
$GPGNS,220103.5,4439.1514,N,06328.3343,W,A,17,1.2,34.5,-22.8,,,V*49
$HCHDG,43,,,16.3,W*26
$HCHDM,43,M*00
$IIMDA,,I,,B,,C,26.4,C,,,,C,,T,,M,,N,,M*04
$WIMWV,41.34,R,5.15,N,A*10
$GPRMC,220103.5,A,4439.1514,N,06328.3343,W,0,,231224,16.33,W,A,V*48
$TIROT,0.39,A*01
$IIVHW,,T,43,M,0,N,0,K*52
$WIVWR,41.3,R,5.2,N,2.7,M,9.5,K*6F
$GPGGA,220103.5,4439.1514,N,06328.3343,W,1,17,1.2,34.47,M,-22.8,M,,*6E
$GPGSA,A,3,30,08,17,07,21,10,14,02,27,,,,1.9,1.2,1.4*36
$GPGLL,4439.1514,N,06328.3343,W,220103.5,A,A*4F
$GPGNS,220103.5,4439.1514,N,06328.3343,W,A,17,1.2,34.5,-22.8,,,V*49
$HCHDG,43,,,16.3,W*26
$HCHDM,43,M*00
$IIMDA,,I,,B,,C,26.4,C,,,,C,,T,,M,,N,,M*04
$IIMTW,26.36,C*22
$WIMWV,41.08,R,5.21,N,A*18
$GPRMC,220103.5,A,4439.1514,N,06328.3343,W,0,,231224,16.33,W,A,V*48
$TIROT,0.45,A*0A
$IIVHW,,T,43,M,0,N,0,K*52
$WIVWR,41.1,R,5.2,N,2.7,M,9.7,K*6F
$GPGGA,220103.5,4439.1514,N,06328.3343,W,1,17,1.2,34.47,M,-22.8,M,,*6E
$GPGLL,4439.1514,N,06328.3343,W,220103.5,A,A*4F
$GPGNS,220103.5,4439.1514,N,06328.3343,W,A,17,1.2,34.5,-22.8,,,V*49
$HCHDG,43,,,16.3,W*26
$HCHDM,43,M*00
$IIMDA,,I,,B,,C,26.4,C,,,,C,,T,,M,,N,,M*04
$WIMWV,41.08,R,5.21,N,A*18
$GPRMC,220103.5,A,4439.1514,N,06328.3343,W,0,,231224,16.33,W,A,V*48
$TIROT,-0.2,A*14
$IIVHW,,T,43,M,0,N,0,K*52
$WIVWR,41.1,R,5.2,N,2.7,M,9.7,K*6F
$GPGGA,220103.5,4439.1514,N,06328.3343,W,1,17,1.2,34.47,M,-22.8,M,,*6E
$GPGLL,4439.1514,N,06328.3343,W,220103.5,A,A*4F
$GPGNS,220103.5,4439.1514,N,06328.3343,W,A,17,1.2,34.5,-22.8,,,V*49
$HCHDG,43,,,16.3,W*26
$HCHDM,43,M*00
$IIMDA,,I,,B,,C,26.4,C,,,,C,,T,,M,,N,,M*04
$WIMWV,40.69,R,5.25,N,A*1A
$GPRMC,220103.5,A,4439.1514,N,06328.3343,W,0,,231224,16.33,W,A,V*48
$TIROT,-0.25,A*21
$IIVHW,,T,43,M,0,N,0,K*52
$WIVWR,40.7,R,5.3,N,2.7,M,9.7,K*69
$GPGGA,220103.5,4439.1514,N,06328.3343,W,1,17,1.2,34.47,M,-22.8,M,,*6E
$GPGLL,4439.1514,N,06328.3343,W,220103.5,A,A*4F
$GPGNS,220103.5,4439.1514,N,06328.3343,W,A,17,1.2,34.5,-22.8,,,V*49
$HCHDG,43,,,16.3,W*26
$HCHDM,43,M*00
$IIMDA,,I,,B,,C,26.4,C,,,,C,,T,,M,,N,,M*04
$WIMWV,40.69,R,5.25,N,A*1A
$GPRMC,220103.5,A,4439.1514,N,06328.3343,W,0,,231224,16.33,W,A,V*48
$TIROT,0.71,A*0D
$IIVHW,,T,43,M,0,N,0,K*52
$GPGSV,3,1,12,30,51,255,33,08,41,063,43,17,23,255,24,07,41,203,25*75
$GPGSV,3,2,12,21,64,084,36,10,11,042,35,14,42,304,37,02,69,144,24*78
$GPGSV,3,3,12,27,08,069,33,13,10,302,00,74,76,328,00,84,72,213,00*78
$WIVWR,40.2,R,5.3,N,2.7,M,9.8,K*63
$GPGGA,220103.5,4439.1514,N,06328.3343,W,1,17,1.2,34.47,M,-22.8,M,,*6E
$GPGLL,4439.1514,N,06328.3343,W,220103.5,A,A*4F
$IIVLW,367.99,N,367.99,N,,N,,N*4D
$GPGNS,220103.5,4439.1514,N,06328.3343,W,A,17,1.2,34.5,-22.8,,,V*49
$HCHDG,43,,,16.3,W*26
$HCHDM,43,M*00
$IIMDA,,I,,B,,C,26.4,C,,,,C,,T,,M,,N,,M*04
$WIMWV,40.22,R,5.29,N,A*19
$GPRMC,220103.5,A,4439.1514,N,06328.3343,W,0,,231224,16.33,W,A,V*48
$TIROT,0.39,A*01
$IIVHW,,T,43,M,0,N,0,K*52
$WIVWR,40.2,R,5.3,N,2.7,M,9.8,K*63
$GPGGA,220103.5,4439.1514,N,06328.3343,W,1,17,1.2,34.47,M,-22.8,M,,*6E
$GPGLL,4439.1514,N,06328.3343,W,220103.5,A,A*4F
$IIMTW,26.36,C*22
$GPGNS,220103.5,4439.1514,N,06328.3343,W,A,17,1.2,34.5,-22.8,,,V*49
$HCHDG,43,,,16.3,W*26
$GPVTG,,T,43.01,M,0,N,0,K,A*0B
$HCHDM,43,M*00
$IIMDA,,I,,B,,C,26.4,C,,,,C,,T,,M,,N,,M*04
$WIMWV,39.75,R,5.33,N,A*1E
$GPRMC,220103.5,A,4439.1514,N,06328.3343,W,0,,231224,16.33,W,A,V*48
$TIROT,-1.71,A*21
$IIVHW,,T,43,M,0,N,0,K*52
$WIVWR,39.7,R,5.3,N,2.7,M,9.9,K*69
$GPGGA,220104.5,4439.1514,N,06328.3343,W,1,17,1.2,34.48,M,-22.8,M,,*66
$GPGLL,4439.1514,N,06328.3343,W,220104.5,A,A*48
$GPGNS,220104.5,4439.1514,N,06328.3343,W,A,17,1.2,34.5,-22.8,,,V*4E
$HCHDG,43,,,16.3,W*26
$HCHDM,43,M*00
$IIMDA,,I,,B,,C,26.4,C,,,,C,,T,,M,,N,,M*04
$WIMWV,39.75,R,5.33,N,A*1E
$GPRMC,220104.5,A,4439.1514,N,06328.3343,W,0,,231224,16.33,W,A,V*4F
$TIROT,0.34,A*0C
$IIVHW,,T,43,M,0,N,0,K*52
$WIVWR,39.7,R,5.3,N,2.7,M,9.9,K*69
$GPGGA,220104.5,4439.1514,N,06328.3343,W,1,17,1.2,34.48,M,-22.8,M,,*66
$GPGLL,4439.1514,N,06328.3343,W,220104.5,A,A*48
$GPGNS,220104.5,4439.1514,N,06328.3343,W,A,17,1.2,34.5,-22.8,,,V*4E
$HCHDG,43,,,16.3,W*26
$HCHDM,43,M*00
$IIMDA,,I,,B,,C,26.4,C,,,,C,,T,,M,,N,,M*04
$WIMWV,39.31,R,5.37,N,A*1A
$TIROT,-0.85,A*2B
$GPRMC,220104.5,A,4439.1514,N,06328.3343,W,0,,231224,16.33,W,A,V*4F
$IIVHW,,T,43,M,0,N,0,K*52
$WIVWR,39.3,R,5.4,N,2.8,M,9.9,K*65
$GPZDA,220104.5,23,12,2024,,*50
$SDDPT,,0,210*78
$GPGGA,220104.5,4439.1514,N,06328.3343,W,1,17,1.2,34.48,M,-22.8,M,,*66
$GPGLL,4439.1514,N,06328.3343,W,220104.5,A,A*48
$GPGNS,220104.5,4439.1514,N,06328.3343,W,A,17,1.2,34.5,-22.8,,,V*4E
$HCHDG,43,,,16.3,W*26
$HCHDM,43,M*00
$IIMDA,,I,,B,,C,26.4,C,,,,C,,T,,M,,N,,M*04
$WIMWV,39.31,R,5.37,N,A*1A
$TIROT,0.36,A*0E
$GPGSA,A,3,30,08,07,21,10,14,27,,,,,,1.9,1.2,1.4*32
$GPRMC,220104.5,A,4439.1514,N,06328.3343,W,0,,231224,16.33,W,A,V*4F
$IIVHW,,T,43,M,0,N,0,K*52
$WIVWR,39.3,R,5.4,N,2.8,M,9.9,K*65
$GPGGA,220104.5,4439.1514,N,06328.3343,W,1,17,1.2,34.48,M,-22.8,M,,*66
$GPGLL,4439.1514,N,06328.3343,W,220104.5,A,A*48
$GPGNS,220104.5,4439.1514,N,06328.3343,W,A,17,1.2,34.5,-22.8,,,V*4E
$HCHDG,43,,,16.3,W*26
$HCHDM,43,M*00
$IIMDA,,I,,B,,C,26.4,C,,,,C,,T,,M,,N,,M*04
$IIMTW,26.36,C*22
$WIMWV,38.88,R,5.38,N,A*16
$GPRMC,220104.5,A,4439.1514,N,06328.3343,W,0,,231224,16.33,W,A,V*4F
$TIROT,-0.35,A*20
$IIVHW,,T,43,M,0,N,0,K*52
$WIVWR,38.9,R,5.4,N,2.8,M,10,K*41
$GPGGA,220104.5,4439.1514,N,06328.3343,W,1,17,1.2,34.48,M,-22.8,M,,*66
$GPGLL,4439.1514,N,06328.3343,W,220104.5,A,A*48
$GPGNS,220104.5,4439.1514,N,06328.3343,W,A,17,1.2,34.5,-22.8,,,V*4E
$HCHDG,43,,,16.3,W*26
$HCHDM,43,M*00
$IIMDA,,I,,B,,C,26.4,C,,,,C,,T,,M,,N,,M*04
$WIMWV,38.88,R,5.38,N,A*16
$GPRMC,220104.5,A,4439.1514,N,06328.3343,W,0,,231224,16.33,W,A,V*4F
$TIROT,0.36,A*0E
$IIVHW,,T,43,M,0,N,0,K*52
$WIVWR,38.4,R,5.4,N,2.8,M,10,K*4C
$GPGGA,220104.5,4439.1514,N,06328.3343,W,1,17,1.2,34.48,M,-22.8,M,,*66
$GPGLL,4439.1514,N,06328.3343,W,220104.5,A,A*48
$GPGNS,220104.5,4439.1514,N,06328.3343,W,A,17,1.2,34.5,-22.8,,,V*4E
$HCHDG,43,,,16.3,W*26
$HCHDM,43,M*00
$IIMDA,,I,,B,,C,26.4,C,,,,C,,T,,M,,N,,M*04
$WIMWV,38.45,R,5.4,N,A*28
$GPRMC,220104.5,A,4439.1514,N,06328.3343,W,0,,231224,16.33,W,A,V*4F
$TIROT,-0.7,A*11
$IIVHW,,T,43,M,0,N,0,K*52
$WIVWR,38.4,R,5.4,N,2.8,M,10,K*4C
$GPGGA,220104.5,4439.1514,N,06328.3343,W,1,17,1.2,34.48,M,-22.8,M,,*66
$GPGLL,4439.1514,N,06328.3343,W,220104.5,A,A*48
$GPGNS,220104.5,4439.1514,N,06328.3343,W,A,17,1.2,34.5,-22.8,,,V*4E
$HCHDG,43,,,16.3,W*26
$HCHDM,43,M*00
$IIMDA,,I,,B,,C,26.4,C,,,,C,,T,,M,,N,,M*04
$WIMWV,38.45,R,5.4,N,A*28
$GPRMC,220104.5,A,4439.1514,N,06328.3343,W,0,,231224,16.33,W,A,V*4F
$TIROT,1.23,A*0B
$IIVHW,,T,43,M,0,N,0,K*52
$WIVWR,38.4,R,5.4,N,2.8,M,10,K*4C
$GPGSV,3,1,12,30,51,255,33,08,41,063,43,17,23,255,24,07,41,203,24*74
$GPGSV,3,2,12,21,64,084,36,10,11,042,35,14,42,304,37,02,69,144,24*78
$GPGSV,3,3,12,27,08,069,32,13,10,302,00,74,76,328,00,84,72,213,00*79
$IIVLW,367.99,N,367.99,N,,N,,N*4D
$GPGGA,220104.5,4439.1514,N,06328.3343,W,1,17,1.2,34.48,M,-22.8,M,,*66
$GPGLL,4439.1514,N,06328.3343,W,220104.5,A,A*48
$GPGNS,220104.5,4439.1514,N,06328.3343,W,A,17,1.2,34.5,-22.8,,,V*4E
$HCHDG,43,,,16.3,W*26
$HCHDM,43,M*00
$IIMDA,,I,,B,,C,26.4,C,,,,C,,T,,M,,N,,M*04
$WIMWV,38.06,R,5.42,N,A*1D
$GPRMC,220104.5,A,4439.1514,N,06328.3343,W,0,,231224,16.33,W,A,V*4F
$TIROT,-0.93,A*2C
$IIVHW,,T,43,M,0,N,0,K*52
$WIVWR,38.1,R,5.4,N,2.8,M,10,K*49
$IIMTW,26.37,C*23
$GPGGA,220104.5,4439.1514,N,06328.3343,W,1,17,1.2,34.48,M,-22.8,M,,*66
$GPGLL,4439.1514,N,06328.3343,W,220104.5,A,A*48
$GPGNS,220104.5,4439.1514,N,06328.3343,W,A,17,1.2,34.5,-22.8,,,V*4E
$HCHDG,43,,,16.3,W*26
$IIMDA,,I,,B,,C,26.4,C,,,,C,,T,,M,,N,,M*04
$WIMWV,38.06,R,5.42,N,A*1D
$GPRMC,220104.5,A,4439.1514,N,06328.3343,W,0,,231224,16.33,W,A,V*4F
$TIROT,-0.91,A*2E
$IIVHW,,T,43,M,0,N,0,K*52
$GPVTG,,T,43.01,M,0,N,0,K,A*0B
$WIVWR,37.8,R,5.4,N,2.8,M,10,K*4F
$HCHDM,43,M*00
$GPGGA,220105.5,4439.1514,N,06328.3343,W,1,17,1.2,34.51,M,-22.8,M,,*6F
$GPGLL,4439.1514,N,06328.3343,W,220105.5,A,A*49
$GPGNS,220105.5,4439.1514,N,06328.3343,W,A,17,1.2,34.5,-22.8,,,V*4F
$HCHDG,43,,,16.3,W*26
$IIMDA,,I,,B,,C,26.4,C,,,,C,,T,,M,,N,,M*04
$WIMWV,37.76,R,5.42,N,A*15
$GPRMC,220105.5,A,4439.1514,N,06328.3343,W,0,,231224,16.33,W,A,V*4E
$TIROT,-0.29,A*2D
$IIVHW,,T,43,M,0,N,0,K*52
$WIVWR,37.8,R,5.4,N,2.8,M,10,K*4F
$HCHDM,43,M*00
$GPGGA,220105.5,4439.1514,N,06328.3343,W,1,17,1.2,34.51,M,-22.8,M,,*6F
$GPGLL,4439.1514,N,06328.3343,W,220105.5,A,A*49
$GPGNS,220105.5,4439.1514,N,06328.3343,W,A,17,1.2,34.5,-22.8,,,V*4F
$HCHDG,43,,,16.3,W*26
$IIMDA,,I,,B,,C,26.4,C,,,,C,,T,,M,,N,,M*04
$WIMWV,37.54,R,5.4,N,A*27
$GPRMC,220105.5,A,4439.1514,N,06328.3343,W,0,,231224,16.33,W,A,V*4E
$TIROT,0.9,A*32
$IIVHW,,T,43,M,0,N,0,K*52
$WIVWR,37.5,R,5.4,N,2.8,M,10,K*42
$HCHDM,43,M*00
$GPZDA,220105.5,23,12,2024,,*51
$SDDPT,,0,210*78
$GPGGA,220105.5,4439.1514,N,06328.3343,W,1,17,1.2,34.51,M,-22.8,M,,*6F
$GPGLL,4439.1514,N,06328.3343,W,220105.5,A,A*49
$GPGNS,220105.5,4439.1514,N,06328.3343,W,A,17,1.2,34.5,-22.8,,,V*4F
$HCHDG,43,,,16.3,W*26
$IIMDA,,I,,B,,C,26.4,C,,,,C,,T,,M,,N,,M*04
$WIMWV,37.54,R,5.4,N,A*27
$GPRMC,220105.5,A,4439.1514,N,06328.3343,W,0,,231224,16.33,W,A,V*4E
$TIROT,-0.99,A*26
$IIVHW,,T,43,M,0,N,0,K*52
$GPGSA,A,3,30,08,07,21,10,14,02,27,,,,,1.9,1.2,1.4*30
$WIVWR,37.5,R,5.4,N,2.8,M,10,K*42
$HCHDM,43,M*00
$GPGGA,220105.5,4439.1514,N,06328.3343,W,1,17,1.2,34.51,M,-22.8,M,,*6F
$GPGLL,4439.1514,N,06328.3343,W,220105.5,A,A*49
$GPGNS,220105.5,4439.1514,N,06328.3343,W,A,17,1.2,34.5,-22.8,,,V*4F
$HCHDG,43,,,16.3,W*26
$IIMDA,,I,,B,,C,26.4,C,,,,C,,T,,M,,N,,M*04
$WIMWV,37.45,R,5.37,N,A*17
$GPRMC,220105.5,A,4439.1514,N,06328.3343,W,0,,231224,16.33,W,A,V*4E
$TIROT,0.17,A*0D
$IIVHW,,T,43,M,0,N,0,K*52
$WIVWR,37.5,R,5.4,N,2.8,M,9.9,K*6D
$IIMTW,26.36,C*22
$HCHDM,43,M*00
$GPGGA,220105.5,4439.1514,N,06328.3343,W,1,17,1.2,34.51,M,-22.8,M,,*6F
$GPGLL,4439.1514,N,06328.3343,W,220105.5,A,A*49
$GPGNS,220105.5,4439.1514,N,06328.3343,W,A,17,1.2,34.5,-22.8,,,V*4F
$HCHDG,43,,,16.3,W*26
$IIMDA,,I,,B,,C,26.4,C,,,,C,,T,,M,,N,,M*04
$WIMWV,37.45,R,5.37,N,A*17
$GPRMC,220105.5,A,4439.1514,N,06328.3343,W,0,,231224,16.33,W,A,V*4E
$TIROT,0.05,A*0E
$IIVHW,,T,43,M,0,N,0,K*52
$WIVWR,37.5,R,5.4,N,2.8,M,9.9,K*6D
$HCHDM,43,M*00
$GPGGA,220105.5,4439.1514,N,06328.3343,W,1,17,1.2,34.51,M,-22.8,M,,*6F
$GPGLL,4439.1514,N,06328.3343,W,220105.5,A,A*49
$GPGNS,220105.5,4439.1514,N,06328.3343,W,A,17,1.2,34.5,-22.8,,,V*4F
$HCHDG,43,,,16.3,W*26
$IIMDA,,I,,B,,C,26.4,C,,,,C,,T,,M,,N,,M*04
$WIMWV,37.45,R,5.33,N,A*13
$GPRMC,220105.5,A,4439.1514,N,06328.3343,W,0,,231224,16.33,W,A,V*4E
$TIROT,0.71,A*0D
$IIVHW,,T,43,M,0,N,0,K*52
$WIVWR,37.5,R,5.3,N,2.7,M,9.9,K*65
$HCHDM,43,M*00
$GPGGA,220105.5,4439.1514,N,06328.3343,W,1,17,1.2,34.51,M,-22.8,M,,*6F
$GPGLL,4439.1514,N,06328.3343,W,220105.5,A,A*49
$GPGNS,220105.5,4439.1514,N,06328.3343,W,A,17,1.2,34.5,-22.8,,,V*4F
$HCHDG,43,,,16.3,W*26
$IIMDA,,I,,B,,C,26.4,C,,,,C,,T,,M,,N,,M*04
$WIMWV,37.45,R,5.33,N,A*13
$GPRMC,220105.5,A,4439.1514,N,06328.3343,W,0,,231224,16.33,W,A,V*4E
$TIROT,-0.25,A*21
$IIVHW,,T,43,M,0,N,0,K*52
$WIVWR,37.5,R,5.3,N,2.7,M,9.9,K*65
$GPGSV,3,1,12,30,51,255,33,08,41,063,43,17,23,255,22,07,41,203,23*75
$GPGSV,3,2,12,21,64,084,36,10,11,042,35,14,42,304,36,02,69,144,24*79
$GPGSV,3,3,12,27,08,069,33,13,10,302,00,74,76,328,00,84,72,213,00*78
$HCHDM,43,M*00
$IIVLW,367.99,N,367.99,N,,N,,N*4D
$GPGGA,220105.5,4439.1514,N,06328.3343,W,1,17,1.2,34.51,M,-22.8,M,,*6F
$GPGLL,4439.1514,N,06328.3343,W,220105.5,A,A*49
$HCHDG,43,,,16.3,W*26
$GPGNS,220105.5,4439.1514,N,06328.3343,W,A,17,1.2,34.5,-22.8,,,V*4F
$IIMDA,,I,,B,,C,26.4,C,,,,C,,T,,M,,N,,M*04
$WIMWV,37.47,R,5.27,N,A*14
$GPRMC,220105.5,A,4439.1514,N,06328.3343,W,0,,231224,16.33,W,A,V*4E
$TIROT,0.12,A*08
$IIVHW,,T,43,M,0,N,0,K*52
$WIVWR,37.5,R,5.3,N,2.7,M,9.8,K*64
$HCHDM,43,M*00
$GPGGA,220105.5,4439.1514,N,06328.3343,W,1,17,1.2,34.51,M,-22.8,M,,*6F
$GPGLL,4439.1514,N,06328.3343,W,220105.5,A,A*49
$HCHDG,43,,,16.3,W*26
$IIMTW,26.36,C*22
$GPGNS,220105.5,4439.1514,N,06328.3343,W,A,17,1.2,34.5,-22.8,,,V*4F
$IIMDA,,I,,B,,C,26.4,C,,,,C,,T,,M,,N,,M*04
$WIMWV,37.47,R,5.27,N,A*14
$GPRMC,220106.5,A,4439.1514,N,06328.3343,W,0,,231224,16.33,W,A,V*4D
$TIROT,1.23,A*0B
$IIVHW,,T,43,M,0,N,0,K*52
$GPVTG,,T,43.01,M,0,N,0,K,A*0B
$WIVWR,37.5,R,5.2,N,2.7,M,9.7,K*6A
$GPGGA,220106.5,4439.1514,N,06328.3343,W,1,17,1.2,34.52,M,-22.8,M,,*6F
$GPGLL,4439.1514,N,06328.3343,W,220106.5,A,A*4A
$HCHDG,43,,,16.3,W*26
$HCHDM,43,M*00
$GPGNS,220106.5,4439.1514,N,06328.3343,W,A,17,1.2,34.5,-22.8,,,V*4C
$IIMDA,,I,,B,,C,26.4,C,,,,C,,T,,M,,N,,M*04
$WIMWV,37.52,R,5.21,N,A*16
$GPRMC,220106.5,A,4439.1514,N,06328.3343,W,0,,231224,16.33,W,A,V*4D
$TIROT,1.34,A*0D
$IIVHW,,T,43,M,0,N,0,K*52
$WIVWR,37.5,R,5.2,N,2.7,M,9.7,K*6A
$GPGGA,220106.5,4439.1514,N,06328.3343,W,1,17,1.2,34.52,M,-22.8,M,,*6F
$GPGLL,4439.1514,N,06328.3343,W,220106.5,A,A*4A
$HCHDG,43,,,16.3,W*26
$HCHDM,43,M*00
$GPGNS,220106.5,4439.1514,N,06328.3343,W,A,17,1.2,34.5,-22.8,,,V*4C
$IIMDA,,I,,B,,C,26.4,C,,,,C,,T,,M,,N,,M*04
$WIMWV,37.48,R,5.15,N,A*1A
$GPRMC,220106.5,A,4439.1514,N,06328.3343,W,0,,231224,16.33,W,A,V*4D
$TIROT,0.44,A*0B
$IIVHW,,T,43,M,0,N,0,K*52
$WIVWR,37.5,R,5.2,N,2.7,M,9.5,K*68
$GPZDA,220106.5,23,12,2024,,*52
$SDDPT,,0,210*78
$GPGGA,220106.5,4439.1514,N,06328.3343,W,1,17,1.2,34.52,M,-22.8,M,,*6F
$GPGLL,4439.1514,N,06328.3343,W,220106.5,A,A*4A
$HCHDG,43,,,16.3,W*26
$HCHDM,43,M*00
$GPGNS,220106.5,4439.1514,N,06328.3343,W,A,17,1.2,34.5,-22.8,,,V*4C
$IIMDA,,I,,B,,C,26.4,C,,,,C,,T,,M,,N,,M*04
$WIMWV,37.48,R,5.15,N,A*1A
$GPRMC,220106.5,A,4439.1514,N,06328.3343,W,0,,231224,16.33,W,A,V*4D
$TIROT,-0.45,A*27
$IIVHW,,T,43,M,0,N,0,K*52
$GPGSA,A,3,30,08,17,07,21,10,14,02,27,,,,1.9,1.2,1.4*36
$WIVWR,37.5,R,5.2,N,2.7,M,9.5,K*68
$GPGGA,220106.5,4439.1514,N,06328.3343,W,1,17,1.2,34.52,M,-22.8,M,,*6F
$GPGLL,4439.1514,N,06328.3343,W,220106.5,A,A*4A
$HCHDG,43,,,16.3,W*26
$HCHDM,43,M*00
$IIMDA,,I,,B,,C,26.4,C,,,,C,,T,,M,,N,,M*04
$WIMWV,37.36,R,5.17,N,A*11
$GPRMC,220106.5,A,4439.1514,N,06328.3343,W,0,,231224,16.33,W,A,V*4D
$TIROT,-0.8,A*1E
$IIVHW,,T,43,M,0,N,0,K*52
$GPGNS,220106.5,4439.1514,N,06328.3343,W,A,17,1.2,34.5,-22.8,,,V*4C
$IIMTW,26.37,C*23
$WIVWR,37.4,R,5.2,N,2.7,M,9.6,K*6A
$GPGGA,220106.5,4439.1514,N,06328.3343,W,1,17,1.2,34.52,M,-22.8,M,,*6F
$GPGLL,4439.1514,N,06328.3343,W,220106.5,A,A*4A
$HCHDG,43,,,16.3,W*26
$HCHDM,43,M*00
$IIMDA,,I,,B,,C,26.4,C,,,,C,,T,,M,,N,,M*04
$WIMWV,37.36,R,5.17,N,A*11
$GPRMC,220106.5,A,4439.1514,N,06328.3343,W,0,,231224,16.33,W,A,V*4D
$TIROT,0.31,A*09
$IIVHW,,T,43,M,0,N,0,K*52
$GPGNS,220106.5,4439.1514,N,06328.3343,W,A,17,1.2,34.5,-22.8,,,V*4C
$WIVWR,37.4,R,5.2,N,2.7,M,9.6,K*6A
$GPGGA,220106.5,4439.1514,N,06328.3343,W,1,17,1.2,34.52,M,-22.8,M,,*6F
$GPGLL,4439.1514,N,06328.3343,W,220106.5,A,A*4A
$HCHDG,43,,,16.3,W*26
$HCHDM,43,M*00
$IIMDA,,I,,B,,C,26.4,C,,,,C,,T,,M,,N,,M*04
$WIMWV,37.15,R,5.25,N,A*11
$GPRMC,220106.5,A,4439.1514,N,06328.3343,W,0,,231224,16.33,W,A,V*4D
$TIROT,-0.56,A*25
$IIVHW,,T,43,M,0,N,0,K*52
$GPGNS,220106.5,4439.1514,N,06328.3343,W,A,17,1.2,34.5,-22.8,,,V*4C
$WIVWR,37.2,R,5.3,N,2.7,M,9.7,K*6C
$GPGGA,220106.5,4439.1514,N,06328.3343,W,1,17,1.2,34.52,M,-22.8,M,,*6F
$GPGLL,4439.1514,N,06328.3343,W,220106.5,A,A*4A
$HCHDG,43,,,16.3,W*26
$HCHDM,43,M*00
$IIMDA,,I,,B,,C,26.4,C,,,,C,,T,,M,,N,,M*04
$WIMWV,37.15,R,5.25,N,A*11
$GPRMC,220106.5,A,4439.1514,N,06328.3343,W,0,,231224,16.33,W,A,V*4D
$TIROT,-0.57,A*24
$IIVHW,,T,43,M,0,N,0,K*52
$GPGNS,220106.5,4439.1514,N,06328.3343,W,A,17,1.2,34.5,-22.8,,,V*4C
$GPGSV,3,1,12,30,51,255,33,08,41,063,43,17,23,255,22,07,41,203,23*75
$GPGSV,3,2,12,21,64,084,36,10,11,042,35,14,42,304,36,02,69,144,24*79
$GPGSV,3,3,12,27,08,069,33,13,10,302,00,74,76,328,00,84,72,214,00*7F
$IIVLW,367.99,N,367.99,N,,N,,N*4D
$WIVWR,36.9,R,5.4,N,2.8,M,10.1,K*50
$GPGGA,220106.5,4439.1514,N,06328.3343,W,1,17,1.2,34.52,M,-22.8,M,,*6F
$GPGLL,4439.1514,N,06328.3343,W,220106.5,A,A*4A
$HCHDG,43,,,16.3,W*26
$HCHDM,43,M*00
$IIMDA,,I,,B,,C,26.4,C,,,,C,,T,,M,,N,,M*04
$WIMWV,36.92,R,5.44,N,A*18
$GPRMC,220106.5,A,4439.1514,N,06328.3343,W,0,,231224,16.33,W,A,V*4D
$TIROT,-0.49,A*2B
$IIVHW,,T,43,M,0,N,0,K*52
$GPGNS,220106.5,4439.1514,N,06328.3343,W,A,17,1.2,34.5,-22.8,,,V*4C
$WIVWR,36.9,R,5.4,N,2.8,M,10.1,K*50
$GPGGA,220106.5,4439.1514,N,06328.3343,W,1,17,1.2,34.52,M,-22.8,M,,*6F
$GPGLL,4439.1514,N,06328.3343,W,220106.5,A,A*4A
$HCHDG,43,,,16.3,W*26
$HCHDM,43,M*00
$IIMDA,,I,,B,,C,26.4,C,,,,C,,T,,M,,N,,M*04
$IIMTW,26.37,C*23
$WIMWV,36.92,R,5.44,N,A*18
$GPRMC,220107.5,A,4439.1514,N,06328.3343,W,0,,231224,16.33,W,A,V*4C
$TIROT,-0.09,A*2F
$IIVHW,,T,43,M,0,N,0,K*52
$GPVTG,,T,43.01,M,0,N,0,K,A*0B
$GPGNS,220107.5,4439.1514,N,06328.3343,W,A,17,1.2,34.5,-22.8,,,V*4D
$HCHDG,43,,,16.3,W*26
$HCHDM,43,M*00
$WIVWR,36.7,R,5.7,N,2.9,M,10.5,K*58
$GPGGA,220107.5,4439.1514,N,06328.3343,W,1,17,1.2,34.54,M,-22.8,M,,*68
$GPGLL,4439.1514,N,06328.3343,W,220107.5,A,A*4B
$IIMDA,,I,,B,,C,26.4,C,,,,C,,T,,M,,N,,M*04
$WIMWV,36.68,R,5.66,N,A*1D
$GPRMC,220107.5,A,4439.1514,N,06328.3343,W,0,,231224,16.33,W,A,V*4C
$TIROT,-1.27,A*22
$IIVHW,,T,43,M,0,N,0,K*52
$GPGNS,220107.5,4439.1514,N,06328.3343,W,A,17,1.2,34.5,-22.8,,,V*4D
$HCHDG,43,,,16.3,W*26
$HCHDM,43,M*00
$WIVWR,36.7,R,5.7,N,2.9,M,10.5,K*58
$GPGGA,220107.5,4439.1514,N,06328.3343,W,1,17,1.2,34.54,M,-22.8,M,,*68
$GPGLL,4439.1514,N,06328.3343,W,220107.5,A,A*4B
$IIMDA,,I,,B,,C,26.4,C,,,,C,,T,,M,,N,,M*04
$WIMWV,36.39,R,5.95,N,A*15
$GPRMC,220107.5,A,4439.1514,N,06328.3343,W,0,,231224,16.33,W,A,V*4C
$TIROT,-0.93,A*2C
$IIVHW,,T,43,M,0,N,0,K*52
$GPZDA,220107.5,23,12,2024,,*53
$SDDPT,,0,210*78
$GPGNS,220107.5,4439.1514,N,06328.3343,W,A,17,1.2,34.5,-22.8,,,V*4D
$HCHDG,43,,,16.3,W*26
$HCHDM,43,M*00
$WIVWR,36.4,R,6,N,3.1,M,11,K*52
$GPGGA,220107.5,4439.1514,N,06328.3343,W,1,17,1.2,34.54,M,-22.8,M,,*68
$GPGLL,4439.1514,N,06328.3343,W,220107.5,A,A*4B
$IIMDA,,I,,B,,C,26.4,C,,,,C,,T,,M,,N,,M*04
$WIMWV,36.39,R,5.95,N,A*15
$GPRMC,220107.5,A,4439.1514,N,06328.3343,W,0,,231224,16.33,W,A,V*4C
$TIROT,0.27,A*0E
$GPGSA,A,3,30,08,17,07,21,10,14,02,27,,,,1.9,1.2,1.4*36
$IIVHW,,T,43,M,0,N,0,K*52
$GPGNS,220107.5,4439.1513,N,06328.3343,W,A,17,1.2,34.5,-22.8,,,V*4A
$HCHDG,43,,,16.3,W*26
$HCHDM,43,M*00
$WIVWR,36.4,R,6,N,3.1,M,11,K*52
$GPGGA,220107.5,4439.1513,N,06328.3343,W,1,17,1.2,34.54,M,-22.8,M,,*6F
$GPGLL,4439.1513,N,06328.3343,W,220107.5,A,A*4C
$IIMDA,,I,,B,,C,26.4,C,,,,C,,T,,M,,N,,M*04
$WIMWV,35.99,R,6.24,N,A*15
$GPRMC,220107.5,A,4439.1513,N,06328.3343,W,0,,231224,16.33,W,A,V*4B
$TIROT,-0.28,A*2C
$IIMTW,26.36,C*22
$IIVHW,,T,43,M,0,N,0,K*52
$GPGNS,220107.5,4439.1513,N,06328.3343,W,A,17,1.2,34.5,-22.8,,,V*4A
$HCHDG,43,,,16.3,W*26
$HCHDM,43,M*00
$WIVWR,36,R,6.2,N,3.2,M,11.6,K*4F
$GPGGA,220107.5,4439.1513,N,06328.3343,W,1,17,1.2,34.54,M,-22.8,M,,*6F
$GPGLL,4439.1513,N,06328.3343,W,220107.5,A,A*4C
$IIMDA,,I,,B,,C,26.4,C,,,,C,,T,,M,,N,,M*04
$WIMWV,35.99,R,6.24,N,A*15
$GPRMC,220107.5,A,4439.1513,N,06328.3343,W,0,,231224,16.33,W,A,V*4B
$TIROT,0.2,A*39
$GPGNS,220107.5,4439.1513,N,06328.3343,W,A,17,1.2,34.5,-22.8,,,V*4A
$IIVHW,,T,43,M,0,N,0,K*52
$HCHDG,43,,,16.3,W*26
$HCHDM,43,M*00
$WIVWR,35.5,R,6.5,N,3.4,M,12.1,K*52
$GPGGA,220107.5,4439.1513,N,06328.3343,W,1,17,1.2,34.54,M,-22.8,M,,*6F
$GPGLL,4439.1513,N,06328.3343,W,220107.5,A,A*4C
$IIMDA,,I,,B,,C,26.4,C,,,,C,,T,,M,,N,,M*04
$WIMWV,35.46,R,6.53,N,A*17
$GPRMC,220107.5,A,4439.1513,N,06328.3343,W,0,,231224,16.33,W,A,V*4B
$GPGNS,220107.5,4439.1513,N,06328.3343,W,A,17,1.2,34.5,-22.8,,,V*4A
$TIROT,-0.3,A*15
$IIVHW,,T,43,M,0,N,0,K*52
$HCHDG,43,,,16.3,W*26
$HCHDM,43,M*00
$GPGGA,220107.5,4439.1513,N,06328.3343,W,1,17,1.2,34.54,M,-22.8,M,,*6F
$WIVWR,35.5,R,6.5,N,3.4,M,12.1,K*52
$GPGLL,4439.1513,N,06328.3343,W,220107.5,A,A*4C
$IIMDA,,I,,B,,C,26.4,C,,,,C,,T,,M,,N,,M*04
$WIMWV,35.46,R,6.53,N,A*17
$GPRMC,220107.5,A,4439.1513,N,06328.3343,W,0,,231224,16.33,W,A,V*4B
$GPGNS,220107.5,4439.1513,N,06328.3343,W,A,17,1.2,34.5,-22.8,,,V*4A
$GPGSV,3,1,12,30,51,255,34,08,41,063,43,17,23,255,22,07,41,203,23*72
$GPGSV,3,2,12,21,64,084,36,10,11,042,36,14,42,304,36,02,69,144,24*7A
$GPGSV,3,3,12,27,08,069,33,13,10,302,00,74,76,328,00,84,72,214,00*7F
$HCHDG,43,,,16.3,W*26
$HCHDM,43,M*00
$TIROT,-0.12,A*25
$IIVHW,,T,43,M,0,N,0,K*52
$IIVLW,367.99,N,367.99,N,,N,,N*4D
$GPGGA,220107.5,4439.1513,N,06328.3343,W,1,17,1.2,34.54,M,-22.8,M,,*6F
$GPGLL,4439.1513,N,06328.3343,W,220107.5,A,A*4C
$IIMDA,,I,,B,,C,26.4,C,,,,C,,T,,M,,N,,M*04
$GPRMC,220107.5,A,4439.1513,N,06328.3343,W,0,,231224,16.33,W,A,V*4B
$WIVWR,34.7,R,6.8,N,3.5,M,12.6,K*5A
$WIMWV,34.74,R,6.8,N,A*29
$GPGNS,220107.5,4439.1513,N,06328.3343,W,A,17,1.2,34.5,-22.8,,,V*4A
$HCHDG,43,,,16.3,W*26
$HCHDM,43,M*00
$TIROT,0.09,A*02
$IIVHW,,T,43,M,0,N,0,K*52
$WIVWR,34.7,R,6.8,N,3.5,M,12.6,K*5A
$GPGGA,220108.5,4439.1513,N,06328.3343,W,1,17,1.2,34.57,M,-22.8,M,,*63
$GPGLL,4439.1513,N,06328.3343,W,220108.5,A,A*43
$IIMDA,,I,,B,,C,26.4,C,,,,C,,T,,M,,N,,M*04
$IIMTW,26.36,C*22
$WIMWV,34,R,7,N,A*13
$GPRMC,220108.5,A,4439.1513,N,06328.3343,W,0,,231224,16.33,W,A,V*44
$GPVTG,,T,43.01,M,0,N,0,K,A*0B
$GPGNS,220108.5,4439.1513,N,06328.3343,W,A,17,1.2,34.6,-22.8,,,V*46
$HCHDG,43,,,16.3,W*26
$HCHDM,43,M*00
$TIROT,0.62,A*0F
$IIVHW,,T,43,M,0,N,0,K*52
$WIVWR,34,R,7,N,3.6,M,13,K*4E
$GPGGA,220108.5,4439.1513,N,06328.3343,W,1,17,1.2,34.57,M,-22.8,M,,*63
$GPGLL,4439.1513,N,06328.3343,W,220108.5,A,A*43
$IIMDA,,I,,B,,C,26.4,C,,,,C,,T,,M,,N,,M*04
$WIMWV,34,R,7,N,A*13
$GPRMC,220108.5,A,4439.1513,N,06328.3343,W,0,,231224,16.33,W,A,V*44
$GPGNS,220108.5,4439.1513,N,06328.3343,W,A,17,1.2,34.6,-22.8,,,V*46
$HCHDG,43,,,16.3,W*26
$HCHDM,43,M*00
$IIVHW,,T,43,M,0,N,0,K*52
$TIROT,0.44,A*0B
$WIVWR,33.4,R,7.1,N,3.7,M,13.2,K*51
$GPGGA,220108.5,4439.1513,N,06328.3343,W,1,17,1.2,34.57,M,-22.8,M,,*63
$GPGLL,4439.1513,N,06328.3343,W,220108.5,A,A*43
$IIMDA,,I,,B,,C,26.4,C,,,,C,,T,,M,,N,,M*04
$WIMWV,33.43,R,7.13,N,A*11
$GPRMC,220108.5,A,4439.1513,N,06328.3343,W,0,,231224,16.33,W,A,V*44
$GPZDA,220108.5,23,12,2024,,*5C
$SDDPT,,0,210*78
$GPGNS,220108.5,4439.1513,N,06328.3343,W,A,17,1.2,34.6,-22.8,,,V*46
$HCHDG,43,,,16.3,W*26
$HCHDM,43,M*00
$IIVHW,,T,43,M,0,N,0,K*52
$TIROT,0.48,A*07
$WIVWR,33.4,R,7.1,N,3.7,M,13.2,K*51
$GPGGA,220108.5,4439.1513,N,06328.3343,W,1,17,1.2,34.57,M,-22.8,M,,*63
$GPGLL,4439.1513,N,06328.3343,W,220108.5,A,A*43
$GPGSA,A,3,30,08,07,21,10,14,02,27,,,,,1.9,1.2,1.4*30
$IIMDA,,I,,B,,C,26.4,C,,,,C,,T,,M,,N,,M*04
$WIMWV,33.43,R,7.13,N,A*11
$GPRMC,220108.5,A,4439.1513,N,06328.3343,W,0,,231224,16.33,W,A,V*44
$GPGNS,220108.5,4439.1513,N,06328.3343,W,A,17,1.2,34.6,-22.8,,,V*46
$HCHDG,43,,,16.3,W*26
$HCHDM,43,M*00
$TIROT,-2.01,A*25
$IIVHW,,T,43,M,0,N,0,K*52
$WIVWR,33,R,7.1,N,3.7,M,13.2,K*4B
$GPGGA,220108.5,4439.1513,N,06328.3343,W,1,17,1.2,34.57,M,-22.8,M,,*63
$GPGLL,4439.1513,N,06328.3343,W,220108.5,A,A*43
$IIMDA,,I,,B,,C,26.4,C,,,,C,,T,,M,,N,,M*04
$WIMWV,32.99,R,7.11,N,A*15
$GPRMC,220108.5,A,4439.1513,N,06328.3343,W,0,,231224,16.33,W,A,V*44
$GPGNS,220108.5,4439.1513,N,06328.3343,W,A,17,1.2,34.6,-22.8,,,V*46
$HCHDG,43,,,16.3,W*26
$HCHDM,43,M*00
$IIMTW,26.36,C*22
$TIROT,-1.55,A*27
$IIVHW,,T,43,M,0,N,0,K*52
$WIVWR,33,R,7.1,N,3.7,M,13.2,K*4B
$GPGGA,220108.5,4439.1513,N,06328.3343,W,1,17,1.2,34.57,M,-22.8,M,,*63
$GPGLL,4439.1513,N,06328.3343,W,220108.5,A,A*43
$IIMDA,,I,,B,,C,26.4,C,,,,C,,T,,M,,N,,M*04
$WIMWV,32.99,R,7.11,N,A*15
$GPRMC,220108.5,A,4439.1513,N,06328.3343,W,0,,231224,16.33,W,A,V*44
$GPGNS,220108.5,4439.1513,N,06328.3343,W,A,17,1.2,34.6,-22.8,,,V*46
$HCHDG,43,,,16.3,W*26
$HCHDM,43,M*00
$TIROT,3.06,A*0E
$IIVHW,,T,43,M,0,N,0,K*52
$WIVWR,32.7,R,7.1,N,3.6,M,13.1,K*51
$GPGGA,220108.5,4439.1513,N,06328.3343,W,1,17,1.2,34.57,M,-22.8,M,,*63
$GPGLL,4439.1513,N,06328.3343,W,220108.5,A,A*43
$IIMDA,,I,,B,,C,26.4,C,,,,C,,T,,M,,N,,M*04
$WIMWV,32.72,R,7.08,N,A*18
$GPRMC,220108.5,A,4439.1513,N,06328.3343,W,0,,231224,16.33,W,A,V*44
$GPGNS,220108.5,4439.1513,N,06328.3343,W,A,17,1.2,34.6,-22.8,,,V*46
$HCHDG,43,,,16.3,W*26
$HCHDM,43,M*00
$TIROT,1.19,A*02
$IIVHW,,T,43,M,0,N,0,K*52
$WIVWR,32.7,R,7.1,N,3.6,M,13.1,K*51
$GPGGA,220108.5,4439.1513,N,06328.3343,W,1,17,1.2,34.57,M,-22.8,M,,*63
$GPGLL,4439.1513,N,06328.3343,W,220108.5,A,A*43
$GPGSV,3,1,12,30,51,255,34,08,41,063,43,17,23,255,21,07,41,203,23*71
$GPGSV,3,2,12,21,64,084,36,10,11,042,36,14,42,304,36,02,69,144,24*7A
$GPGSV,3,3,12,27,08,069,33,13,10,302,00,74,76,328,00,84,72,214,00*7F
$IIMDA,,I,,B,,C,26.4,C,,,,C,,T,,M,,N,,M*04
$WIMWV,32.62,R,6.96,N,A*1F
$GPRMC,220108.5,A,4439.1513,N,06328.3343,W,0,,231224,16.33,W,A,V*44
$IIVLW,367.99,N,367.99,N,,N,,N*4D
$GPGNS,220108.5,4439.1513,N,06328.3343,W,A,17,1.2,34.6,-22.8,,,V*46
$HCHDG,43,,,16.3,W*26
$HCHDM,43,M*00
$TIROT,0.72,A*0E
$IIVHW,,T,43,M,0,N,0,K*52
$WIVWR,32.6,R,7,N,3.6,M,12.9,K*46
$GPGGA,220108.5,4439.1513,N,06328.3343,W,1,17,1.2,34.57,M,-22.8,M,,*63
$GPGLL,4439.1513,N,06328.3343,W,220108.5,A,A*43
$IIMDA,,I,,B,,C,26.4,C,,,,C,,T,,M,,N,,M*04
$WIMWV,32.62,R,6.96,N,A*1F
$GPRMC,220108.5,A,4439.1513,N,06328.3343,W,0,,231224,16.33,W,A,V*44
$GPGNS,220109.5,4439.1513,N,06328.3343,W,A,17,1.1,34.6,-22.8,,,V*44
$HCHDG,43,,,16.3,W*26
$HCHDM,43,M*00
$TIROT,2.31,A*0B
$IIVHW,,T,43,M,0,N,0,K*52
$WIVWR,32.6,R,7,N,3.6,M,12.9,K*46
$GPGGA,220109.5,4439.1513,N,06328.3343,W,1,17,1.1,34.6,M,-22.8,M,,*55
$GPGLL,4439.1513,N,06328.3343,W,220109.5,A,A*42
$IIMDA,,I,,B,,C,26.4,C,,,,C,,T,,M,,N,,M*04
$IIMTW,26.36,C*22
$WIMWV,32.6,R,6.82,N,A*28
$GPRMC,220109.5,A,4439.1513,N,06328.3343,W,0,,231224,16.33,W,A,V*45
$GPVTG,,T,43,M,0,N,0,K,A*24
$GPGNS,220109.5,4439.1513,N,06328.3343,W,A,17,1.1,34.6,-22.8,,,V*44
$HCHDG,43,,,16.3,W*26
$HCHDM,43,M*00
$TIROT,1.06,A*0C
$IIVHW,,T,43,M,0,N,0,K*52
$WIVWR,32.6,R,6.8,N,3.5,M,12.6,K*5D
$GPGGA,220109.5,4439.1513,N,06328.3343,W,1,17,1.1,34.6,M,-22.8,M,,*55
$GPGLL,4439.1513,N,06328.3343,W,220109.5,A,A*42
$IIMDA,,I,,B,,C,26.4,C,,,,C,,T,,M,,N,,M*04
$WIMWV,32.6,R,6.82,N,A*28
$GPRMC,220109.5,A,4439.1513,N,06328.3343,W,0,,231224,16.33,W,A,V*45
$GPGNS,220109.5,4439.1513,N,06328.3343,W,A,17,1.1,34.6,-22.8,,,V*44
$HCHDG,43,,,16.3,W*26
$HCHDM,43,M*00
$TIROT,-1.33,A*27
$IIVHW,,T,43,M,0,N,0,K*52
$WIVWR,32.6,R,6.8,N,3.5,M,12.6,K*5D
$GPZDA,220109.5,23,12,2024,,*5D
$GPGGA,220109.5,4439.1513,N,06328.3343,W,1,17,1.1,34.6,M,-22.8,M,,*55
$GPGLL,4439.1513,N,06328.3343,W,220109.5,A,A*42
$IIMDA,,I,,B,,C,26.4,C,,,,C,,T,,M,,N,,M*04
$WIMWV,32.56,R,6.67,N,A*16
$GPRMC,220109.5,A,4439.1513,N,06328.3343,W,0,,231224,16.33,W,A,V*45
$SDDPT,,0,210*78
$GPGNS,220109.5,4439.1513,N,06328.3343,W,A,17,1.1,34.6,-22.8,,,V*44
$HCHDG,43,,,16.3,W*26
$HCHDM,43,M*00
$TIROT,0.59,A*07
$IIVHW,,T,43,M,0,N,0,K*52
$WIVWR,32.6,R,6.7,N,3.4,M,12.4,K*51
$GPGGA,220109.5,4439.1513,N,06328.3343,W,1,17,1.1,34.6,M,-22.8,M,,*55
$GPGLL,4439.1513,N,06328.3343,W,220109.5,A,A*42
$GPGSA,A,3,30,08,17,07,21,10,14,02,27,,,,1.9,1.1,1.4*35
$IIMDA,,I,,B,,C,26.4,C,,,,C,,T,,M,,N,,M*04
$WIMWV,32.56,R,6.67,N,A*16
$GPRMC,220109.5,A,4439.1513,N,06328.3343,W,0,,231224,16.33,W,A,V*45
$TIROT,-0.74,A*25
$IIVHW,,T,43,M,0,N,0,K*52
$GPGNS,220109.5,4439.1513,N,06328.3343,W,A,17,1.1,34.6,-22.8,,,V*44
$HCHDG,43,,,16.3,W*26
$HCHDM,43,M*00
$WIVWR,32.4,R,6.5,N,3.4,M,12.1,K*54
$GPGGA,220109.5,4439.1513,N,06328.3343,W,1,17,1.1,34.6,M,-22.8,M,,*55
$GPGLL,4439.1513,N,06328.3343,W,220109.5,A,A*42
$IIMDA,,I,,B,,C,26.4,C,,,,C,,T,,M,,N,,M*04
$WIMWV,32.39,R,6.53,N,A*18
$GPRMC,220109.5,A,4439.1513,N,06328.3343,W,0,,231224,16.33,W,A,V*45
$TIROT,-0.72,A*23
$IIVHW,,T,43,M,0,N,0,K*52
$GPGNS,220109.5,4439.1513,N,06328.3343,W,A,17,1.1,34.6,-22.8,,,V*44
$HCHDG,43,,,16.3,W*26
$HCHDM,43,M*00
$IIMTW,26.36,C*22
$WIVWR,32.4,R,6.5,N,3.4,M,12.1,K*54
$GPGGA,220109.5,4439.1513,N,06328.3343,W,1,17,1.1,34.6,M,-22.8,M,,*55
$GPGLL,4439.1513,N,06328.3343,W,220109.5,A,A*42
$IIMDA,,I,,B,,C,26.4,C,,,,C,,T,,M,,N,,M*04
$WIMWV,32.16,R,6.34,N,A*14
$GPRMC,220109.5,A,4439.1513,N,06328.3343,W,0,,231224,16.33,W,A,V*45
$TIROT,1.03,A*09
$IIVHW,,T,43,M,0,N,0,K*52
$GPGNS,220109.5,4439.1513,N,06328.3343,W,A,17,1.1,34.6,-22.8,,,V*44
$HCHDG,43,,,16.3,W*26
$HCHDM,43,M*00
$WIVWR,32.2,R,6.3,N,3.3,M,11.7,K*56
$GPGGA,220109.5,4439.1513,N,06328.3343,W,1,17,1.1,34.6,M,-22.8,M,,*55
$GPGLL,4439.1513,N,06328.3343,W,220109.5,A,A*42
$IIMDA,,I,,B,,C,26.4,C,,,,C,,T,,M,,N,,M*04
$WIMWV,32.16,R,6.34,N,A*14
$GPRMC,220109.5,A,4439.1513,N,06328.3343,W,0,,231224,16.33,W,A,V*45
$TIROT,-1.05,A*22
$IIVHW,,T,43,M,0,N,0,K*52
$GPGNS,220109.5,4439.1513,N,06328.3343,W,A,17,1.1,34.6,-22.8,,,V*44
$HCHDG,43,,,16.3,W*26
$HCHDM,43,M*00
$WIVWR,32.2,R,6.3,N,3.3,M,11.7,K*56
$GPGGA,220109.5,4439.1513,N,06328.3343,W,1,17,1.1,34.6,M,-22.8,M,,*55
$GPGLL,4439.1513,N,06328.3343,W,220109.5,A,A*42
$GPGSV,3,1,12,30,51,255,33,08,41,063,43,17,23,255,21,07,41,203,23*76
$GPGSV,3,2,12,21,64,084,35,10,11,042,36,14,42,304,36,02,69,144,24*79
$GPGSV,3,3,12,27,08,069,33,13,10,302,00,74,76,328,00,84,72,214,00*7F
$IIMDA,,I,,B,,C,26.4,C,,,,C,,T,,M,,N,,M*04
$WIMWV,31.82,R,6.18,N,A*14
$GPRMC,220109.5,A,4439.1513,N,06328.3343,W,0,,231224,16.33,W,A,V*45
$TIROT,-0.3,A*15
$IIVLW,367.99,N,367.99,N,,N,,N*4D
$GPGNS,220109.5,4439.1513,N,06328.3343,W,A,17,1.1,34.6,-22.8,,,V*44
$HCHDG,43,,,16.3,W*26
$HCHDM,43,M*00
$IIVHW,,T,43,M,0,N,0,K*52
$WIVWR,31.8,R,6.2,N,3.2,M,11.5,K*5D
$GPGGA,220110.5,4439.1513,N,06328.3343,W,1,17,1.1,34.62,M,-22.8,M,,*6F
$GPGLL,4439.1513,N,06328.3343,W,220110.5,A,A*4A
$IIMDA,,I,,B,,C,26.4,C,,,,C,,T,,M,,N,,M*04
$WIMWV,31.82,R,6.18,N,A*14
$GPRMC,220110.5,A,4439.1513,N,06328.3343,W,0,,231224,16.33,W,A,V*4D
$TIROT,-0.65,A*25
$GPGNS,220110.5,4439.1513,N,06328.3343,W,A,17,1.1,34.6,-22.8,,,V*4C
$HCHDG,43,,,16.3,W*26
$HCHDM,43,M*00
$IIVHW,,T,43,M,0,N,0,K*52
$WIVWR,31.8,R,6.2,N,3.2,M,11.5,K*5D
$GPVTG,,T,43.01,M,0,N,0,K,A*0B
$GPGGA,220110.5,4439.1513,N,06328.3343,W,1,17,1.1,34.62,M,-22.8,M,,*6F
$GPGLL,4439.1513,N,06328.3343,W,220110.5,A,A*4A
$IIMDA,,I,,B,,C,26.4,C,,,,C,,T,,M,,N,,M*04
$IIMTW,26.36,C*22
$WIMWV,31.47,R,6.05,N,A*11
$GPRMC,220110.5,A,4439.1513,N,06328.3343,W,0,,231224,16.33,W,A,V*4D
$TIROT,-0.34,A*21
$GPGNS,220110.5,4439.1513,N,06328.3343,W,A,17,1.1,34.6,-22.8,,,V*4C
$HCHDG,43,,,16.3,W*26
$HCHDM,43,M*00
$IIVHW,,T,43,M,0,N,0,K*52
$WIVWR,31.5,R,6.1,N,3.1,M,11.2,K*57
$GPGGA,220110.5,4439.1513,N,06328.3343,W,1,17,1.1,34.62,M,-22.8,M,,*6F
$GPGLL,4439.1513,N,06328.3343,W,220110.5,A,A*4A
$IIMDA,,I,,B,,C,26.4,C,,,,C,,T,,M,,N,,M*04
$WIMWV,31.47,R,6.05,N,A*11
$GPRMC,220110.5,A,4439.1513,N,06328.3343,W,0,,231224,16.33,W,A,V*4D
$TIROT,-0.07,A*21
$GPGNS,220110.5,4439.1513,N,06328.3343,W,A,17,1.1,34.6,-22.8,,,V*4C
$HCHDG,43,,,16.3,W*26
$GPZDA,220110.5,23,12,2024,,*55
$HCHDM,43,M*00
$IIVHW,,T,43,M,0,N,0,K*52
$WIVWR,31.5,R,6.1,N,3.1,M,11.2,K*57
$SDDPT,,0,210*78
$GPGGA,220110.5,4439.1513,N,06328.3343,W,1,17,1.1,34.62,M,-22.8,M,,*6F
$GPGLL,4439.1513,N,06328.3343,W,220110.5,A,A*4A
$IIMDA,,I,,B,,C,26.4,C,,,,C,,T,,M,,N,,M*04
$WIMWV,31.1,R,5.89,N,A*24
$GPRMC,220110.5,A,4439.1513,N,06328.3343,W,0,,231224,16.33,W,A,V*4D
$TIROT,3.42,A*0E
$GPGNS,220110.5,4439.1513,N,06328.3343,W,A,17,1.1,34.6,-22.8,,,V*4C
$HCHDG,43,,,16.3,W*26
$HCHDM,43,M*00
$IIVHW,,T,43,M,0,N,0,K*52
$WIVWR,31.1,R,5.9,N,3,M,10.9,K*4D
$GPGGA,220110.5,4439.1513,N,06328.3343,W,1,17,1.1,34.62,M,-22.8,M,,*6F
$GPGLL,4439.1513,N,06328.3343,W,220110.5,A,A*4A
$GPGSA,A,3,30,08,21,10,14,02,27,,,,,,1.8,1.1,1.4*35
$IIMDA,,I,,B,,C,26.4,C,,,,C,,T,,M,,N,,M*04
$WIMWV,31.1,R,5.89,N,A*24
$GPRMC,220110.5,A,4439.1513,N,06328.3343,W,0,,231224,16.33,W,A,V*4D
$TIROT,1.97,A*04
$GPGNS,220110.5,4439.1513,N,06328.3343,W,A,17,1.1,34.6,-22.8,,,V*4C
$HCHDG,43,,,16.3,W*26
$HCHDM,43,M*00
$IIVHW,,T,43,M,0,N,0,K*52
$WIVWR,30.7,R,5.8,N,3,M,10.7,K*45
$GPGGA,220110.5,4439.1513,N,06328.3343,W,1,17,1.1,34.62,M,-22.8,M,,*6F
$GPGLL,4439.1513,N,06328.3343,W,220110.5,A,A*4A
$IIMDA,,I,,B,,C,26.4,C,,,,C,,T,,M,,N,,M*04
$WIMWV,30.73,R,5.75,N,A*13
$GPRMC,220110.5,A,4439.1513,N,06328.3343,W,0,,231224,16.33,W,A,V*4D
$TIROT,-1.11,A*27
$GPGNS,220110.5,4439.1513,N,06328.3343,W,A,17,1.1,34.6,-22.8,,,V*4C
$HCHDG,43,,,16.3,W*26
$HCHDM,43,M*00
$IIVHW,,T,43,M,0,N,0,K*52
$WIVWR,30.7,R,5.8,N,3,M,10.7,K*45
$IIMTW,26.36,C*22
$GPGGA,220110.5,4439.1513,N,06328.3343,W,1,17,1.1,34.62,M,-22.8,M,,*6F
$GPGLL,4439.1513,N,06328.3343,W,220110.5,A,A*4A
$IIMDA,,I,,B,,C,26.4,C,,,,C,,T,,M,,N,,M*04
$WIMWV,30.73,R,5.75,N,A*13
$GPRMC,220110.5,A,4439.1513,N,06328.3343,W,0,,231224,16.33,W,A,V*4D
$TIROT,0.52,A*0C
$GPGNS,220110.5,4439.1513,N,06328.3343,W,A,17,1.1,34.6,-22.8,,,V*4C
$HCHDG,43,,,16.3,W*26
$HCHDM,43,M*00
$IIVHW,,T,43,M,0,N,0,K*52
$WIVWR,30.4,R,5.6,N,2.9,M,10.4,K*5D
$GPGGA,220110.5,4439.1513,N,06328.3343,W,1,17,1.1,34.62,M,-22.8,M,,*6F
$GPGLL,4439.1513,N,06328.3343,W,220110.5,A,A*4A
$IIMDA,,I,,B,,C,26.4,C,,,,C,,T,,M,,N,,M*04
$WIMWV,30.44,R,5.62,N,A*11
$GPRMC,220110.5,A,4439.1513,N,06328.3343,W,0,,231224,16.33,W,A,V*4D
$TIROT,0.77,A*0B
$GPGNS,220110.5,4439.1513,N,06328.3343,W,A,17,1.1,34.6,-22.8,,,V*4C
$HCHDG,43,,,16.3,W*26
$HCHDM,43,M*00
$IIVHW,,T,43,M,0,N,0,K*52
$WIVWR,30.4,R,5.6,N,2.9,M,10.4,K*5D
$GPGSV,3,1,12,30,51,255,33,08,41,063,43,17,23,255,20,07,41,203,22*76
$GPGSV,3,2,12,21,64,084,36,10,11,042,36,14,42,304,35,02,69,144,24*79
$GPGSV,3,3,12,27,08,069,32,13,10,302,17,74,76,328,00,84,72,214,00*78
$GPGGA,220110.5,4439.1513,N,06328.3343,W,1,17,1.1,34.62,M,-22.8,M,,*6F
$GPGLL,4439.1513,N,06328.3343,W,220110.5,A,A*4A
$IIMDA,,I,,B,,C,26.4,C,,,,C,,T,,M,,N,,M*04
$WIMWV,30.08,R,5.5,N,A*28
$GPRMC,220110.5,A,4439.1513,N,06328.3343,W,0,,231224,16.33,W,A,V*4D
$TIROT,-2.44,A*24
$IIVLW,367.99,N,367.99,N,,N,,N*4D
$GPGNS,220110.5,4439.1513,N,06328.3343,W,A,17,1.1,34.6,-22.8,,,V*4C
$HCHDG,43,,,16.3,W*26
$HCHDM,43,M*00
$IIVHW,,T,43,M,0,N,0,K*52
$WIVWR,30.1,R,5.5,N,2.8,M,10.2,K*5C
$GPGGA,220111.5,4439.1513,N,06328.3343,W,1,17,1.1,34.64,M,-22.8,M,,*68
$GPGLL,4439.1513,N,06328.3343,W,220111.5,A,A*4B
$IIMDA,,I,,B,,C,26.4,C,,,,C,,T,,M,,N,,M*04
$WIMWV,30.08,R,5.5,N,A*28
$GPRMC,220111.5,A,4439.1513,N,06328.3343,W,0,,231224,16.33,W,A,V*4C
$TIROT,-0.34,A*21
$GPGNS,220111.5,4439.1513,N,06328.3343,W,A,17,1.1,34.6,-22.8,,,V*4D
$HCHDG,43,,,16.3,W*26
$HCHDM,43,M*00
$IIVHW,,T,43,M,0,N,0,K*52
$GPVTG,,T,43.01,M,0,N,0,K,A*0B
$WIVWR,30.1,R,5.5,N,2.8,M,10.2,K*5C
$IIMDA,,I,,B,,C,26.4,C,,,,C,,T,,M,,N,,M*04
$GPGGA,220111.5,4439.1513,N,06328.3343,W,1,17,1.1,34.64,M,-22.8,M,,*68
$GPGLL,4439.1513,N,06328.3343,W,220111.5,A,A*4B
$WIMWV,29.51,R,5.4,N,A*2D
$GPRMC,220111.5,A,4439.1513,N,06328.3343,W,0,,231224,16.33,W,A,V*4C
$TIROT,-1.83,A*2C
$GPGNS,220111.5,4439.1513,N,06328.3343,W,A,17,1.1,34.6,-22.8,,,V*4D
$HCHDG,43,,,16.3,W*26
$HCHDM,43,M*00
$IIMTW,26.36,C*22
$IIVHW,,T,43,M,0,N,0,K*52
$WIVWR,29.5,R,5.4,N,2.8,M,10,K*4D
$GPGGA,220111.5,4439.1513,N,06328.3343,W,1,17,1.1,34.64,M,-22.8,M,,*68
$GPGLL,4439.1513,N,06328.3343,W,220111.5,A,A*4B
$IIMDA,,I,,B,,C,26.4,C,,,,C,,T,,M,,N,,M*04
$WIMWV,29.51,R,5.4,N,A*2D
$GPRMC,220111.5,A,4439.1513,N,06328.3343,W,0,,231224,16.33,W,A,V*4C
$TIROT,-0.14,A*23
$GPZDA,220111.5,23,12,2024,,*54
$GPGNS,220111.5,4439.1513,N,06328.3343,W,A,17,1.1,34.6,-22.8,,,V*4D
$HCHDG,43,,,16.3,W*26
$HCHDM,43,M*00
$IIVHW,,T,43,M,0,N,0,K*52
$WIVWR,28.9,R,5.4,N,2.8,M,9.9,K*6F
$GPGGA,220111.5,4439.1513,N,06328.3343,W,1,17,1.1,34.64,M,-22.8,M,,*68
$GPGLL,4439.1513,N,06328.3343,W,220111.5,A,A*4B
$IIMDA,,I,,B,,C,26.4,C,,,,C,,T,,M,,N,,M*04
$SDDPT,,0,210*78
$WIMWV,28.86,R,5.35,N,A*14
$GPRMC,220111.5,A,4439.1513,N,06328.3343,W,0,,231224,16.33,W,A,V*4C
$TIROT,-1.39,A*2D
$IIVHW,,T,43,M,0,N,0,K*52
$WIVWR,28.9,R,5.4,N,2.8,M,9.9,K*6F
$GPGGA,220111.5,4439.1513,N,06328.3343,W,1,17,1.1,34.64,M,-22.8,M,,*68
$GPGNS,220111.5,4439.1513,N,06328.3343,W,A,17,1.1,34.6,-22.8,,,V*4D
$HCHDG,43,,,16.3,W*26
$HCHDM,43,M*00
$IIMDA,,I,,B,,C,26.4,C,,,,C,,T,,M,,N,,M*04
$GPGLL,4439.1513,N,06328.3343,W,220111.5,A,A*4B
$GPGSA,A,3,30,08,17,07,21,10,14,02,27,,,,1.8,1.1,1.4*34
$WIMWV,28.86,R,5.35,N,A*14
$GPRMC,220111.5,A,4439.1513,N,06328.3343,W,0,,231224,16.33,W,A,V*4C
$TIROT,0.89,A*0A
$GPGGA,220111.5,4439.1513,N,06328.3343,W,1,17,1.1,34.64,M,-22.8,M,,*68
$GPGNS,220111.5,4439.1513,N,06328.3343,W,A,17,1.1,34.6,-22.8,,,V*4D
$HCHDG,43,,,16.3,W*26
$HCHDM,43,M*00
$IIMDA,,I,,B,,C,26.4,C,,,,C,,T,,M,,N,,M*04
$IIVHW,,T,43,M,0,N,0,K*52
$WIVWR,28.1,R,5.3,N,2.7,M,9.8,K*6E
$GPGLL,4439.1513,N,06328.3343,W,220111.5,A,A*4B
$WIMWV,28.13,R,5.27,N,A*1B
$GPRMC,220111.5,A,4439.1513,N,06328.3343,W,0,,231224,16.33,W,A,V*4C
$TIROT,0.09,A*02
$GPGGA,220111.5,4439.1513,N,06328.3343,W,1,17,1.1,34.64,M,-22.8,M,,*68
$GPGNS,220111.5,4439.1513,N,06328.3343,W,A,17,1.1,34.6,-22.8,,,V*4D
$HCHDG,43,,,16.3,W*26
$HCHDM,43,M*00
$IIMDA,,I,,B,,C,26.4,C,,,,C,,T,,M,,N,,M*04
$IIVHW,,T,43,M,0,N,0,K*52
$WIVWR,28.1,R,5.3,N,2.7,M,9.8,K*6E
$GPGLL,4439.1513,N,06328.3343,W,220111.5,A,A*4B
$IIMTW,26.36,C*22
$WIMWV,28.13,R,5.27,N,A*1B
$GPRMC,220111.5,A,4439.1513,N,06328.3343,W,0,,231224,16.33,W,A,V*4C
$TIROT,-0.07,A*21
$GPGGA,220111.5,4439.1513,N,06328.3343,W,1,17,1.1,34.64,M,-22.8,M,,*68
$GPGNS,220111.5,4439.1513,N,06328.3343,W,A,17,1.1,34.6,-22.8,,,V*4D
$HCHDG,43,,,16.3,W*26
$HCHDM,43,M*00
$IIMDA,,I,,B,,C,26.4,C,,,,C,,T,,M,,N,,M*04
$IIVHW,,T,43,M,0,N,0,K*52
$WIVWR,27.5,R,5.2,N,2.7,M,9.7,K*6B
$GPGLL,4439.1513,N,06328.3343,W,220111.5,A,A*4B
$WIMWV,27.46,R,5.23,N,A*10
$GPRMC,220111.5,A,4439.1513,N,06328.3343,W,0,,231224,16.33,W,A,V*4C
$TIROT,0.23,A*0A
$GPGGA,220111.5,4439.1513,N,06328.3343,W,1,17,1.1,34.64,M,-22.8,M,,*68
$GPGNS,220111.5,4439.1513,N,06328.3343,W,A,17,1.1,34.6,-22.8,,,V*4D
$GPGSV,3,1,12,30,51,255,33,08,41,063,43,17,23,255,20,07,41,203,22*76
$GPGSV,3,2,12,21,64,084,36,10,11,042,36,14,42,304,35,02,69,144,24*79
$GPGSV,3,3,12,27,08,069,32,13,10,302,17,74,76,328,00,84,72,214,00*78
$HCHDG,43,,,16.3,W*26
$HCHDM,43,M*00
$IIMDA,,I,,B,,C,26.4,C,,,,C,,T,,M,,N,,M*04
$IIVHW,,T,43,M,0,N,0,K*52
$WIVWR,27.5,R,5.2,N,2.7,M,9.7,K*6B
$GPGLL,4439.1513,N,06328.3343,W,220111.5,A,A*4B
$WIMWV,26.86,R,5.25,N,A*1B
$GPRMC,220111.5,A,4439.1513,N,06328.3343,W,0,,231224,16.33,W,A,V*4C
$TIROT,-0.8,A*1E
$IIVLW,367.99,N,367.99,N,,N,,N*4D
$GPGGA,220112.5,4439.1513,N,06328.3343,W,1,17,1.1,34.63,M,-22.8,M,,*6C
$GPGNS,220112.5,4439.1513,N,06328.3343,W,A,17,1.1,34.6,-22.8,,,V*4E
$HCHDG,43,,,16.3,W*26
$HCHDM,43,M*00
$IIMDA,,I,,B,,C,26.4,C,,,,C,,T,,M,,N,,M*04
$IIVHW,,T,43,M,0,N,0,K*52
$WIVWR,26.9,R,5.3,N,2.7,M,9.7,K*67
$GPGLL,4439.1513,N,06328.3343,W,220112.5,A,A*48
$WIMWV,26.86,R,5.25,N,A*1B
$GPRMC,220112.5,A,4439.1513,N,06328.3343,W,0,,231224,16.33,W,A,V*4F
$TIROT,0.05,A*0E
$GPGGA,220112.5,4439.1513,N,06328.3343,W,1,17,1.1,34.63,M,-22.8,M,,*6C
$GPGNS,220112.5,4439.1513,N,06328.3343,W,A,17,1.1,34.6,-22.8,,,V*4E
$HCHDG,43,,,16.3,W*26
$GPVTG,,T,42.99,M,0,N,0,K,A*0B
$HCHDM,43,M*00
$IIMDA,,I,,B,,C,26.4,C,,,,C,,T,,M,,N,,M*04
$IIVHW,,T,43,M,0,N,0,K*52
$WIVWR,26.3,R,5.3,N,2.7,M,9.8,K*62
$GPGLL,4439.1513,N,06328.3343,W,220112.5,A,A*48
$WIMWV,26.32,R,5.27,N,A*16
$GPRMC,220112.5,A,4439.1513,N,06328.3343,W,0,,231224,16.33,W,A,V*4F
$TIROT,0.45,A*0A
$GPGGA,220112.5,4439.1513,N,06328.3343,W,1,17,1.1,34.63,M,-22.8,M,,*6C
$GPGNS,220112.5,4439.1513,N,06328.3343,W,A,17,1.1,34.6,-22.8,,,V*4E
$HCHDG,43,,,16.3,W*26
$IIMTW,26.36,C*22
$HCHDM,43,M*00
$IIMDA,,I,,B,,C,26.4,C,,,,C,,T,,M,,N,,M*04
$IIVHW,,T,43,M,0,N,0,K*52
$WIVWR,26.3,R,5.3,N,2.7,M,9.8,K*62
$GPGLL,4439.1513,N,06328.3343,W,220112.5,A,A*48
$WIMWV,26.32,R,5.27,N,A*16
$GPRMC,220112.5,A,4439.1513,N,06328.3343,W,0,,231224,16.33,W,A,V*4F
$TIROT,0.58,A*06
$GPZDA,220112.5,23,12,2024,,*57
$GPGGA,220112.5,4439.1513,N,06328.3343,W,1,17,1.1,34.63,M,-22.8,M,,*6C
$GPGNS,220112.5,4439.1513,N,06328.3343,W,A,17,1.1,34.6,-22.8,,,V*4E
$HCHDG,43,,,16.3,W*26
$HCHDM,43,M*00
$IIMDA,,I,,B,,C,26.4,C,,,,C,,T,,M,,N,,M*04
$IIVHW,,T,43,M,0,N,0,K*52
$WIVWR,25.8,R,5.3,N,2.7,M,9.8,K*6A
$SDDPT,,0,210*78
$GPGLL,4439.1513,N,06328.3343,W,220112.5,A,A*48
$WIMWV,25.81,R,5.31,N,A*1A
$GPRMC,220112.5,A,4439.1513,N,06328.3343,W,0,,231224,16.33,W,A,V*4F
$TIROT,-2.03,A*27
$GPGGA,220112.5,4439.1513,N,06328.3343,W,1,17,1.1,34.63,M,-22.8,M,,*6C
$GPGNS,220112.5,4439.1513,N,06328.3343,W,A,17,1.1,34.6,-22.8,,,V*4E
$HCHDG,43,,,16.3,W*26
$HCHDM,43,M*00
$IIMDA,,I,,B,,C,26.4,C,,,,C,,T,,M,,N,,M*04
$IIVHW,,T,43,M,0,N,0,K*52
$WIVWR,25.8,R,5.3,N,2.7,M,9.8,K*6A
$GPGSA,A,3,30,08,17,21,10,14,02,27,,,,,1.8,1.1,1.4*33
$GPGLL,4439.1513,N,06328.3343,W,220112.5,A,A*48
$WIMWV,25.81,R,5.31,N,A*1A
$GPRMC,220112.5,A,4439.1513,N,06328.3343,W,0,,231224,16.33,W,A,V*4F
$TIROT,-0.55,A*26
$GPGGA,220112.5,4439.1513,N,06328.3343,W,1,17,1.1,34.63,M,-22.8,M,,*6C
$GPGNS,220112.5,4439.1513,N,06328.3343,W,A,17,1.1,34.6,-22.8,,,V*4E
$HCHDG,43,,,16.3,W*26
$HCHDM,43,M*00
$IIMDA,,I,,B,,C,26.4,C,,,,C,,T,,M,,N,,M*04
$IIVHW,,T,43,M,0,N,0,K*52
$WIVWR,25.3,R,5.4,N,2.8,M,9.9,K*68
$GPGLL,4439.1513,N,06328.3343,W,220112.5,A,A*48
$WIMWV,25.31,R,5.35,N,A*15
$GPRMC,220112.5,A,4439.1513,N,06328.3343,W,0,,231224,16.33,W,A,V*4F
$TIROT,-0.17,A*20
$GPGGA,220112.5,4439.1513,N,06328.3343,W,1,17,1.1,34.63,M,-22.8,M,,*6C
$GPGNS,220112.5,4439.1513,N,06328.3343,W,A,17,1.1,34.6,-22.8,,,V*4E
$HCHDG,43,,,16.3,W*26
$HCHDM,43,M*00
$IIMDA,,I,,B,,C,26.4,C,,,,C,,T,,M,,N,,M*04
$IIVHW,,T,43,M,0,N,0,K*52
$WIVWR,25.3,R,5.4,N,2.8,M,9.9,K*68
$GPGLL,4439.1513,N,06328.3343,W,220112.5,A,A*48
$IIMTW,26.36,C*22
$WIMWV,24.87,R,5.4,N,A*2B
$GPRMC,220112.5,A,4439.1513,N,06328.3343,W,0,,231224,16.33,W,A,V*4F
$TIROT,0.5,A*3E
$GPGGA,220112.5,4439.1513,N,06328.3343,W,1,17,1.1,34.63,M,-22.8,M,,*6C
$GPGNS,220112.5,4439.1513,N,06328.3343,W,A,17,1.1,34.6,-22.8,,,V*4E
$HCHDG,43,,,16.3,W*26
$HCHDM,43,M*00
$IIMDA,,I,,B,,C,26.4,C,,,,C,,T,,M,,N,,M*04
$IIVHW,,T,43,M,0,N,0,K*52
$WIVWR,24.9,R,5.4,N,2.8,M,10,K*4C
$GPGLL,4439.1513,N,06328.3343,W,220112.5,A,A*48
$WIMWV,24.87,R,5.4,N,A*2B
$GPRMC,220112.5,A,4439.1513,N,06328.3343,W,0,,231224,16.33,W,A,V*4F
$TIROT,0.95,A*07
$GPGGA,220112.5,4439.1513,N,06328.3343,W,1,17,1.1,34.63,M,-22.8,M,,*6C
$GPGNS,220112.5,4439.1513,N,06328.3343,W,A,17,1.1,34.6,-22.8,,,V*4E
$GPGSV,3,1,12,30,51,255,29,08,41,063,44,17,23,255,20,07,41,203,21*79
$GPGSV,3,2,12,21,64,084,36,10,11,042,35,14,42,304,35,02,69,144,24*7A
$GPGSV,3,3,12,27,08,069,31,13,10,302,18,74,76,328,00,84,72,214,00*74
$HCHDG,43,,,16.3,W*26
$HCHDM,43,M*00
$IIMDA,,I,,B,,C,26.4,C,,,,C,,T,,M,,N,,M*04
$IIVHW,,T,43,M,0,N,0,K*52
$WIVWR,24.9,R,5.4,N,2.8,M,10,K*4C
$GPGLL,4439.1513,N,06328.3343,W,220112.5,A,A*48
$WIMWV,24.49,R,5.46,N,A*1F
$GPRMC,220113.5,A,4439.1513,N,06328.3343,W,0,,231224,16.33,W,A,V*4E
$TIROT,1.74,A*09
$IIVLW,367.99,N,367.99,N,,N,,N*4D
$GPGGA,220113.5,4439.1513,N,06328.3343,W,1,17,1.1,34.62,M,-22.8,M,,*6C
